[{"name":"Utirik Airport","city":"Utirik Island","country":"Marshall Islands","iata":"UTK","icao":"03N","longitude":"169.852005","latitude":"11.222","altitude":13},{"name":"Ocean Reef Club Airport","city":"Key Largo","country":"United States of America","iata":"OCA","icao":"07FA","longitude":"-80.274803161621","latitude":"25.325399398804","altitude":26},{"name":"Pilot Station Airport","city":"Pilot Station","country":"United States of America","iata":"PQS","icao":"0AK","longitude":"-162.899994","latitude":"61.934601","altitude":1001},{"name":"Crested Butte Airpark","city":"Crested Butte","country":"United States of America","iata":"CSE","icao":"0CO2","longitude":"-106.928341","latitude":"38.851918","altitude":29462},{"name":"LBJ Ranch Airport","city":"Johnson City","country":"United States of America","iata":"JCY","icao":"0TE7","longitude":"-98.62249755859999","latitude":"30.251800537100003","altitude":4970},{"name":"Metropolitan Airport","city":"Palmer","country":"United States of America","iata":"PMX","icao":"13MA","longitude":"-72.31140136719999","latitude":"42.223300933800004","altitude":1371},{"name":"Nunapitchuk Airport","city":"Nunapitchuk","country":"United States of America","iata":"NUP","icao":"16A","longitude":"-162.440454","latitude":"60.905591","altitude":39},{"name":"Icy Bay Airport","city":"Icy Bay","country":"United States of America","iata":"ICY","icao":"19AK","longitude":"-141.662002563","latitude":"59.96900177","altitude":164},{"name":"Kalakaket Creek AS Airport","city":"Kalakaket Creek","country":"United States of America","iata":"KKK","icao":"1KC","longitude":"-156.820392609","latitude":"64.4166256967","altitude":5243},{"name":"Dunsmuir Muni-Mott Airport","city":"Dunsmuir","country":"United States of America","iata":"MHS","icao":"1O6","longitude":"-122.272003","latitude":"41.263199","altitude":10689},{"name":"Chase Field Industrial Airport","city":"Beeville","country":"United States of America","iata":"NIR","icao":"1XA2","longitude":"-97.661917","latitude":"28.362444","altitude":623},{"name":"Grand Canyon Bar Ten Airstrip","city":"Whitmore","country":"United States of America","iata":"GCT","icao":"1Z1","longitude":"-113.231159","latitude":"36.258614","altitude":13451},{"name":"Lime Village Airport","city":"Lime Village","country":"United States of America","iata":"LVD","icao":"2AK","longitude":"-155.440002441","latitude":"61.3591003418","altitude":1811},{"name":"Hog River Airport","city":"Hogatza","country":"United States of America","iata":"HGZ","icao":"2AK6","longitude":"-155.6690063","latitude":"66.2161026","altitude":1752},{"name":"Ed-Air Airport","city":"Oaktown","country":"United States of America","iata":"OTN","icao":"2IG4","longitude":"-87.4997024536","latitude":"38.851398468","altitude":1398},{"name":"Telida Airport","city":"Telida","country":"United States of America","iata":"TLF","icao":"2K5","longitude":"-153.26899719238","latitude":"63.393901824951","altitude":2133},{"name":"Eagle Air Park","city":"Brazoria","country":"United States of America","iata":"BZT","icao":"2TE0","longitude":"-95.579696655273","latitude":"28.982200622559","altitude":49},{"name":"Blakely Island Airport","city":"Blakely Island","country":"United States of America","iata":"BYW","icao":"38WA","longitude":"-122.825996399","latitude":"48.578998565700005","altitude":217},{"name":"Drift River Airport","city":"Kenai","country":"United States of America","iata":"DRF","icao":"3AK5","longitude":"-152.162002563","latitude":"60.588901519800004","altitude":98},{"name":"Rinkenberger Restricted Landing Area","city":"Bradford","country":"United States of America","iata":"BDF","icao":"3IS8","longitude":"-89.61569976810001","latitude":"41.230899810800004","altitude":2651},{"name":"Roy Otten Memorial Airfield","city":"Versailles","country":"United States of America","iata":"VRS","icao":"3VS","longitude":"-92.875198364258","latitude":"38.427799224854","altitude":3379},{"name":"Atmautluak Airport","city":"Atmautluak","country":"United States of America","iata":"ATT","icao":"4A2","longitude":"-162.272995","latitude":"60.866699","altitude":56},{"name":"Livengood Camp Airport","city":"Livengood","country":"United States of America","iata":"LIV","icao":"4AK","longitude":"-148.6534","latitude":"65.467","altitude":1394},{"name":"Pedro Bay Airport","city":"Pedro Bay","country":"United States of America","iata":"PDB","icao":"4K0","longitude":"-154.12399292","latitude":"59.7896003723","altitude":148},{"name":"Ouzinkie Airport","city":"Ouzinkie","country":"United States of America","iata":"KOZ","icao":"4K5","longitude":"-152.496715","latitude":"57.925362","altitude":180},{"name":"Tununak Airport","city":"Tununak","country":"United States of America","iata":"TNK","icao":"4KA","longitude":"-165.27200317383","latitude":"60.575500488281","altitude":46},{"name":"Minto Al Wright Airport","city":"Minto","country":"United States of America","iata":"MNT","icao":"51Z","longitude":"-149.369995","latitude":"65.1437","altitude":1509},{"name":"Aleknagik / New Airport","city":"Aleknagik","country":"United States of America","iata":"WKK","icao":"5A8","longitude":"-158.617996216","latitude":"59.2826004028","altitude":217},{"name":"Naknek Airport","city":"Naknek","country":"United States of America","iata":"NNK","icao":"5NK","longitude":"-157.02000427246","latitude":"58.732898712158","altitude":230},{"name":"Southern Seaplane Airport","city":"Belle Chasse","country":"United States of America","iata":"BCS","icao":"65LA","longitude":"-90.0222015381","latitude":"29.8661003113","altitude":0},{"name":"Earl Henry Airport","city":"Blackwell","country":"United States of America","iata":"BWL","icao":"6OK6","longitude":"-97.3170013428","latitude":"36.7958984375","altitude":3458},{"name":"Center Island Airport","city":"Center Island","country":"United States of America","iata":"CWS","icao":"78WA","longitude":"-122.832000732","latitude":"48.4901008606","altitude":377},{"name":"Tatitlek Airport","city":"Tatitlek","country":"United States of America","iata":"TEK","icao":"7KA","longitude":"-146.690297","latitude":"60.871449","altitude":203},{"name":"Pine Island Airport","city":"Corolla","country":"United States of America","iata":"DUF","icao":"7NC2","longitude":"-75.7884979248","latitude":"36.2535018921","altitude":52},{"name":"Stuart Island Airpark","city":"Stuart Island","country":"United States of America","iata":"SSW","icao":"7WA5","longitude":"-123.17600250244","latitude":"48.672901153564","altitude":33},{"name":"Fort Bragg Airport","city":"Fort Bragg","country":"United States of America","iata":"FOB","icao":"82CL","longitude":"-123.79599762","latitude":"39.4743003845","altitude":233},{"name":"Maxson Airfield","city":"Alexandria Bay","country":"United States of America","iata":"AXB","icao":"89NY","longitude":"-75.90034","latitude":"44.312002","altitude":1115},{"name":"Reese Airpark","city":"Lubbock","country":"United States of America","iata":"REE","icao":"8XS8","longitude":"-102.03700256348","latitude":"33.590301513672","altitude":10951},{"name":"Waldron Airstrip","city":"East Sound","country":"United States of America","iata":"WDN","icao":"90WA","longitude":"-123.017998","latitude":"48.7118","altitude":459},{"name":"Chuathbaluk Airport","city":"Chuathbaluk","country":"United States of America","iata":"CHU","icao":"9A3","longitude":"-159.216003","latitude":"61.579102","altitude":801},{"name":"Ugashik Airport","city":"Ugashik","country":"United States of America","iata":"UGS","icao":"9A8","longitude":"-157.399002075","latitude":"57.5279006958","altitude":82},{"name":"Marlboro Airport","city":"Marlboro","country":"United States of America","iata":"MXG","icao":"9B1","longitude":"-71.509002","latitude":"42.343201","altitude":935},{"name":"Levelock Airport","city":"Levelock","country":"United States of America","iata":"KLL","icao":"9Z8","longitude":"-156.85899353","latitude":"59.128101348899996","altitude":128},{"name":"Tuntutuliak Airport","city":"Tuntutuliak","country":"United States of America","iata":"WTL","icao":"A61","longitude":"-162.667007446","latitude":"60.3353004456","altitude":52},{"name":"Twin Hills Airport","city":"Twin Hills","country":"United States of America","iata":"TWA","icao":"A63","longitude":"-160.27299499512","latitude":"59.07559967041","altitude":269},{"name":"Chignik Lake Airport","city":"Chignik Lake","country":"United States of America","iata":"KCQ","icao":"A79","longitude":"-158.774993896","latitude":"56.2550010681","altitude":164},{"name":"Adado Airport","city":"Adado","country":"Somalia","iata":"AAD","icao":"AAD","longitude":"46.6375","latitude":"6.095802","altitude":3284},{"name":"Atkamba Airport","city":"Atkamba Mission","country":"Papua New Guinea","iata":"ABP","icao":"ABP","longitude":"141.095277778","latitude":"-6.0655555555600005","altitude":492},{"name":"Andakombe Airport","city":"Andekombe","country":"Papua New Guinea","iata":"ADC","icao":"ADC","longitude":"145.744722222","latitude":"-7.13722222222","altitude":11811},{"name":"El Daein Airport","city":"El Daein","country":"Sudan","iata":"ADV","icao":"ADV","longitude":"26.1186","latitude":"11.4023","altitude":5118},{"name":"Adareil Airport","city":"","country":"South Sudan","iata":"AEE","icao":"AEE","longitude":"32.9594444444","latitude":"10.0536111111","altitude":4268},{"name":"Aseki Airport","city":"Aseki","country":"Papua New Guinea","iata":"AEK","icao":"AEK","longitude":"146.19386673","latitude":"-7.35080485552","altitude":13471},{"name":"Ar Horqin Airport","city":"Chifeng","country":"China","iata":"AEQ","icao":"AEQ","longitude":"120.15958","latitude":"43.87042","altitude":4380},{"name":"Orūzgān Airport","city":"Orūzgān","country":"Afghanistan","iata":"URZ","icao":"AF10","longitude":"66.630897522","latitude":"32.9029998779","altitude":22064},{"name":"Salerno Airport","city":"Khost","country":"Afghanistan","iata":"OLR","icao":"AF11","longitude":"69.9561","latitude":"33.3638","altitude":12402},{"name":"Afore Airstrip","city":"","country":"Papua New Guinea","iata":"AFR","icao":"AFR","longitude":"148.390833333","latitude":"-9.142222222220001","altitude":8202},{"name":"Afutara Aerodrome","city":"Bila","country":"Solomon Islands","iata":"AFT","icao":"AGAF","longitude":"160.948611111","latitude":"-9.19138888889","altitude":75},{"name":"Ulawa Airport","city":"Arona","country":"Solomon Islands","iata":"RNA","icao":"AGAR","longitude":"161.979546547","latitude":"-9.86054358262","altitude":131},{"name":"Uru Harbour Airport","city":"Atoifi","country":"Solomon Islands","iata":"ATD","icao":"AGAT","longitude":"161.011002","latitude":"-8.87333","altitude":0},{"name":"Barakoma Airport","city":"Barakoma","country":"Solomon Islands","iata":"VEV","icao":"AGBA","longitude":"156.70599365234375","latitude":"-7.912779808044434","altitude":0},{"name":"Geva Airport","city":"Liangia","country":"Solomon Islands","iata":"GEF","icao":"AGEV","longitude":"156.5970001220703","latitude":"-7.575829982757568","altitude":0},{"name":"Angoram Airport","city":"Angoram","country":"Papua New Guinea","iata":"AGG","icao":"AGG","longitude":"144.073888889","latitude":"-4.05583333333","altitude":246},{"name":"Gwaunaru'u Airport","city":"Auki","country":"Solomon Islands","iata":"AKS","icao":"AGGA","longitude":"160.682007","latitude":"-8.70257","altitude":16},{"name":"Bellona/Anua Airport","city":"Anua","country":"Solomon Islands","iata":"BNY","icao":"AGGB","longitude":"159.798333333","latitude":"-11.302222222200001","altitude":197},{"name":"Choiseul Bay Airport","city":"","country":"Solomon Islands","iata":"CHY","icao":"AGGC","longitude":"156.396111","latitude":"-6.711944","altitude":0},{"name":"Ballalae Airport","city":"Ballalae","country":"Solomon Islands","iata":"BAS","icao":"AGGE","longitude":"155.886656","latitude":"-6.990745","altitude":16},{"name":"Fera/Maringe Airport","city":"Fera Island","country":"Solomon Islands","iata":"FRE","icao":"AGGF","longitude":"159.576996","latitude":"-8.1075","altitude":0},{"name":"Honiara International Airport","city":"Honiara","country":"Solomon Islands","iata":"HIR","icao":"AGGH","longitude":"160.05499267578","latitude":"-9.4280004501343","altitude":92},{"name":"Babanakira Airport","city":"Mbambanakira","country":"Solomon Islands","iata":"MBU","icao":"AGGI","longitude":"159.83900451660156","latitude":"-9.7475004196167","altitude":0},{"name":"Avu Avu Airport","city":"","country":"Solomon Islands","iata":"AVU","icao":"AGGJ","longitude":"160.410555556","latitude":"-9.86833333333","altitude":82},{"name":"Ngorangora Airport","city":"Kirakira","country":"Solomon Islands","iata":"IRA","icao":"AGGK","longitude":"161.897994995","latitude":"-10.449700355500001","altitude":177},{"name":"Santa Cruz/Graciosa Bay/Luova Airport","city":"Santa Cruz/Graciosa Bay/Luova","country":"Solomon Islands","iata":"SCZ","icao":"AGGL","longitude":"165.7949981689453","latitude":"-10.72029972076416","altitude":59},{"name":"Munda Airport","city":"","country":"Solomon Islands","iata":"MUA","icao":"AGGM","longitude":"157.26300048828125","latitude":"-8.327969551086426","altitude":33},{"name":"Nusatupe Airport","city":"Gizo","country":"Solomon Islands","iata":"GZO","icao":"AGGN","longitude":"156.863998413","latitude":"-8.09778022766","altitude":43},{"name":"Mono Airport","city":"Stirling Island","country":"Solomon Islands","iata":"MNY","icao":"AGGO","longitude":"155.56500244140625","latitude":"-7.416940212249756","altitude":0},{"name":"Parasi Airport","city":"Parasi","country":"Solomon Islands","iata":"PRS","icao":"AGGP","longitude":"161.4250030517578","latitude":"-9.641670227050781","altitude":0},{"name":"Rennell/Tingoa Airport","city":"Rennell Island","country":"Solomon Islands","iata":"RNL","icao":"AGGR","longitude":"160.06300354003906","latitude":"-11.533900260925293","altitude":0},{"name":"Sege Airport","city":"Sege","country":"Solomon Islands","iata":"EGM","icao":"AGGS","longitude":"157.87600708007812","latitude":"-8.578889846801758","altitude":0},{"name":"Santa Ana Airport","city":"Santa Ana Island","country":"Solomon Islands","iata":"NNB","icao":"AGGT","longitude":"162.454108","latitude":"-10.847994","altitude":10},{"name":"Marau Airport","city":"Marau","country":"Solomon Islands","iata":"RUS","icao":"AGGU","longitude":"160.824996948","latitude":"-9.861669540409999","altitude":0},{"name":"Suavanao Airport","city":"Suavanao","country":"Solomon Islands","iata":"VAO","icao":"AGGV","longitude":"158.7310028076172","latitude":"-7.585559844970703","altitude":0},{"name":"Yandina Airport","city":"Yandina","country":"Solomon Islands","iata":"XYA","icao":"AGGY","longitude":"159.21841","latitude":"-9.092816","altitude":197},{"name":"Kagua Airport","city":"Kagua","country":"Papua New Guinea","iata":"AGK","icao":"AGK","longitude":"143.853611111","latitude":"-6.396388888890001","altitude":17552},{"name":"Kaghau Airport","city":"Kagau Island","country":"Solomon Islands","iata":"KGE","icao":"AGKG","longitude":"157.585","latitude":"-7.3305","altitude":98},{"name":"Kukudu Airport","city":"Kolombangara Island","country":"Solomon Islands","iata":"KUE","icao":"AGKU","longitude":"156.94783","latitude":"-8.0262","altitude":105},{"name":"Kwailabesi Airport","city":"Kwailabesi","country":"Solomon Islands","iata":"KWS","icao":"AGKW","longitude":"160.775127","latitude":"-8.360508","altitude":171},{"name":"Wanigela Airport","city":"","country":"Papua New Guinea","iata":"AGL","icao":"AGL","longitude":"149.155555556","latitude":"-9.3375","altitude":174},{"name":"Nana Airport","city":"Star Harbor","country":"Solomon Islands","iata":"NAZ","icao":"AGNA","longitude":"162.2049","latitude":"-10.6758","altitude":197},{"name":"Ringi Cove Airport","city":"Ringi Cove","country":"Solomon Islands","iata":"RIN","icao":"AGRC","longitude":"157.14300537109375","latitude":"-8.12639045715332","altitude":0},{"name":"Ramata Airport","city":"Ramata","country":"Solomon Islands","iata":"RBV","icao":"AGRM","longitude":"157.64300537109375","latitude":"-8.168060302734375","altitude":0},{"name":"Argyle Downs Airport","city":"Argyle Downs","country":"Australia","iata":"AGY","icao":"AGY","longitude":"128.9245","latitude":"-16.514","altitude":1335},{"name":"Hongyuan Airport","city":"Aba","country":"China","iata":"AHJ","icao":"AHJ","longitude":"102.35224","latitude":"32.53154","altitude":38058},{"name":"Ambatolhy Airport","city":"Ambatolahy","country":"Madagascar","iata":"AHY","icao":"AHY","longitude":"45.535","latitude":"-20.015833333299998","altitude":1115},{"name":"Aiome Airport","city":"Aiome","country":"Papua New Guinea","iata":"AIE","icao":"AIE","longitude":"144.7307003","latitude":"-5.145699978","altitude":1148},{"name":"Aiambak Airport","city":"Aiambak","country":"Papua New Guinea","iata":"AIH","icao":"AIH","longitude":"141.2675","latitude":"-7.342777777779999","altitude":295},{"name":"Ailinglaplap Airok Airport","city":"Bigatyelang Island","country":"Marshall Islands","iata":"AIC","icao":"AIP","longitude":"168.8257","latitude":"7.279422","altitude":52},{"name":"Chena Hot Springs Airport","city":"Chena Hot Springs","country":"United States of America","iata":"CEX","icao":"AK13","longitude":"-146.04699707","latitude":"65.0518035889","altitude":3921},{"name":"Solomon State Field","city":"Solomon","country":"United States of America","iata":"SOL","icao":"AK26","longitude":"-164.4457","latitude":"64.5605","altitude":82},{"name":"Herendeen Bay Airport","city":"Herendeen Bay","country":"United States of America","iata":"HED","icao":"AK33","longitude":"-160.899002075","latitude":"55.801399231","altitude":66},{"name":"Taylor Airport","city":"Taylor","country":"United States of America","iata":"TWE","icao":"AK49","longitude":"-164.798995972","latitude":"65.6792984009","altitude":1444},{"name":"Lonely Air Station","city":"Lonely","country":"United States of America","iata":"LNI","icao":"AK71","longitude":"-153.2420044","latitude":"70.91069794","altitude":56},{"name":"Candle 2 Airport","city":"Candle","country":"United States of America","iata":"CDL","icao":"AK75","longitude":"-161.925994873","latitude":"65.907699585","altitude":49},{"name":"Bartletts Airport","city":"Egegik","country":"United States of America","iata":"BSZ","icao":"AK96","longitude":"-157.352005005","latitude":"58.2162017822","altitude":164},{"name":"Boswell Bay Airport","city":"Boswell Bay","country":"United States of America","iata":"BSW","icao":"AK97","longitude":"-146.145996094","latitude":"60.4230995178","altitude":755},{"name":"Zakuoma Airport","city":"ZaKouma","country":"Chad","iata":"AKM","icao":"AKM","longitude":"19.8172222222","latitude":"10.8902777778","altitude":4495},{"name":"Sharpe Field","city":"Tuskegee","country":"United States of America","iata":"TGE","icao":"AL73","longitude":"-85.7755966187","latitude":"32.4919013977","altitude":830},{"name":"Mar de Cortés International Airport","city":"Puerto Peñasco","country":"Mexico","iata":"PPE","icao":"AMC","longitude":"-113.305177","latitude":"31.351987","altitude":233},{"name":"Alto Molocue Airport","city":"Alto Molocue","country":"Mozambique","iata":"AME","icao":"AME","longitude":"37.6813888889","latitude":"-15.6102777778","altitude":6398},{"name":"Ama Airport","city":"","country":"Papua New Guinea","iata":"AMF","icao":"AMF","longitude":"141.67","latitude":"-4.10111111111","altitude":476},{"name":"Amanab Airport","city":"Amanab","country":"Papua New Guinea","iata":"AMU","icao":"AMU","longitude":"141.214333333","latitude":"-3.586","altitude":4288},{"name":"Ambatomainty Airport","city":"","country":"Madagascar","iata":"AMY","icao":"AMY","longitude":"45.623888888900005","latitude":"-17.6866666667","altitude":3363},{"name":"Nauru International Airport","city":"Yaren District","country":"Nauru","iata":"INU","icao":"ANYN","longitude":"166.919006","latitude":"-0.547458","altitude":72},{"name":"Angus Downs Airport","city":"Angus Downs Station","country":"Australia","iata":"ANZ","icao":"ANZ","longitude":"132.2748","latitude":"-25.0325","altitude":5656},{"name":"Andulo Airport","city":"","country":"Angola","iata":"ANL","icao":"AO-0005","longitude":"16.710899353","latitude":"-11.472299575800001","altitude":0},{"name":"Cangamba Airport","city":"Cangamba","country":"Angola","iata":"CNZ","icao":"AO-CNZ","longitude":"19.861099","latitude":"-13.7106","altitude":12776},{"name":"Dirico Airport","city":"Dirico","country":"Angola","iata":"DRC","icao":"AO-DRC","longitude":"20.7680606842041","latitude":"-17.981924057006836","altitude":11496},{"name":"Lumbala Airport","city":"Lumbala","country":"Angola","iata":"GGC","icao":"AO-GGC","longitude":"22.5868206024","latitude":"-12.6398773193","altitude":11516},{"name":"Jamba Airport","city":"Jamba","country":"Angola","iata":"JMB","icao":"AO-JMB","longitude":"16.070148468017578","latitude":"-14.698192596435547","altitude":16115},{"name":"Capanda Airport","city":"Capanda","country":"Angola","iata":"KNP","icao":"AO-KNP","longitude":"15.4553194046","latitude":"-9.76937007904","altitude":11043},{"name":"Ndalatandos Airport","city":"Ndalatandos","country":"Angola","iata":"NDF","icao":"AO-NDF","longitude":"14.977242469787598","latitude":"-9.275188446044922","altitude":8806},{"name":"Annanberg Airport","city":"","country":"Papua New Guinea","iata":"AOB","icao":"AOB","longitude":"144.635833333","latitude":"-4.90416666667","altitude":427},{"name":"Abou-Deïa Airport","city":"Abou-Deïa","country":"Chad","iata":"AOD","icao":"AOD","longitude":"19.2874","latitude":"11.4773","altitude":5223},{"name":"Asapa Airport","city":"","country":"Papua New Guinea","iata":"APP","icao":"APP","longitude":"148.103611111","latitude":"-8.97916666667","altitude":6332},{"name":"April River Airport","city":"April River","country":"Papua New Guinea","iata":"APR","icao":"APR","longitude":"142.540138889","latitude":"-4.67666666667","altitude":722},{"name":"Troll Airfield","city":"Troll Station","country":"Antarctica","iata":"QET","icao":"AQ-0002","longitude":"2.455581","latitude":"-71.95559","altitude":13671},{"name":"Girdwood Airport","city":"Girdwood","country":"United States of America","iata":"AQY","icao":"AQY","longitude":"-149.126007","latitude":"60.966099","altitude":492},{"name":"Bragado Airport","city":"Bragado","country":"Argentina","iata":"QRF","icao":"AR-0005","longitude":"-60.4803","latitude":"-35.144","altitude":643},{"name":"Caleta Olivia Airport","city":"Caleta Olivia","country":"Argentina","iata":"CVI","icao":"AR-0007","longitude":"-67.5186004639","latitude":"-46.4318008423","altitude":121},{"name":"Charata Airport","city":"Charata","country":"Argentina","iata":"CNT","icao":"AR-0009","longitude":"-61.2103","latitude":"-27.2164","altitude":1043},{"name":"General Villegas Airport","city":"General Villegas","country":"Argentina","iata":"VGS","icao":"AR-0010","longitude":"-63","latitude":"-35","altitude":1257},{"name":"Los Menucos Airport","city":"Los Menucos","country":"Argentina","iata":"LMD","icao":"AR-0011","longitude":"-68.074699","latitude":"-40.817699","altitude":8435},{"name":"Valcheta Airport","city":"Valcheta","country":"Argentina","iata":"VCF","icao":"AR-0017","longitude":"-66.1500015259","latitude":"-40.7000007629","altitude":2064},{"name":"Sunchales Aeroclub Airport","city":"Sunchales","country":"Argentina","iata":"NCJ","icao":"AR-0346","longitude":"-61.5283","latitude":"-30.9575","altitude":981},{"name":"Carmen De Patagones Airport","city":"Carmen de Patagones","country":"Argentina","iata":"CPG","icao":"AR-0390","longitude":"-62.9803","latitude":"-40.7781","altitude":430},{"name":"Termal Airport","city":"Presidencia Roque Sáenz Peña","country":"Argentina","iata":"PRQ","icao":"AR-0462","longitude":"-60.492222","latitude":"-26.753611","altitude":1010},{"name":"Colonia Sarmiento Airport","city":"Sarmiento","country":"Argentina","iata":"OLN","icao":"AR-0494","longitude":"-68.999841","latitude":"-45.582371","altitude":2877},{"name":"Aragip Airport","city":"","country":"Papua New Guinea","iata":"ARP","icao":"ARP","longitude":"149.483333333","latitude":"-9.88333333333","altitude":5741},{"name":"Tau Airport","city":"Tau Village","country":"American Samoa","iata":"TAV","icao":"AS-TAV","longitude":"-169.511001587","latitude":"-14.2292003632","altitude":607},{"name":"Asirim Airport","city":"","country":"Papua New Guinea","iata":"ASZ","icao":"ASZ","longitude":"150.368611111","latitude":"-6.009722222220001","altitude":3445},{"name":"Namatanai Airport","city":"Namatanai","country":"Papua New Guinea","iata":"ATN","icao":"ATN","longitude":"152.438","latitude":"-3.6695","altitude":492},{"name":"Aitape Airport","city":"Aitape","country":"Papua New Guinea","iata":"ATP","icao":"ATP","longitude":"142.346805556","latitude":"-3.1436111111100002","altitude":33},{"name":"Lady Elliot Island Airstrip","city":"Lady Elliot Island","country":"Australia","iata":"LYT","icao":"AU-0081","longitude":"152.7156","latitude":"-24.1129","altitude":66},{"name":"Agnew Airport","city":"Agnew","country":"Australia","iata":"AGW","icao":"AU-AGW","longitude":"142.1490020751953","latitude":"-12.145600318908691","altitude":0},{"name":"Alroy Downs Airport","city":"Alroy Downs","country":"Australia","iata":"AYD","icao":"AU-AYD","longitude":"136.07899475097656","latitude":"-19.290800094604492","altitude":0},{"name":"Baniyala Airport","city":"Baniyala","country":"Australia","iata":"BYX","icao":"AU-BYX","longitude":"136.227005005","latitude":"-13.19810009","altitude":66},{"name":"Coolibah Airport","city":"Coolibah","country":"Australia","iata":"COB","icao":"AU-COB","longitude":"130.96200561523438","latitude":"-15.548299789428711","altitude":0},{"name":"Coorabie Airport","city":"Coorabie","country":"Australia","iata":"CRJ","icao":"AU-CRJ","longitude":"132.29600524902344","latitude":"-31.894399642944336","altitude":0},{"name":"Carlton Hill Airport","city":"Carlton Hill","country":"Australia","iata":"CRY","icao":"AU-CRY","longitude":"128.53399658203125","latitude":"-15.501899719238281","altitude":0},{"name":"Cresswell Downs Airport","city":"Cresswell Downs","country":"Australia","iata":"CSD","icao":"AU-CSD","longitude":"135.91600036621094","latitude":"-17.947999954223633","altitude":0},{"name":"Diamantina Lakes Airport","city":"Diamantina Lakes","country":"Australia","iata":"DYM","icao":"AU-DYM","longitude":"141.14500427246094","latitude":"-23.761699676513672","altitude":0},{"name":"Helenvale Airport","city":"Helenvale","country":"Australia","iata":"HLV","icao":"AU-HLV","longitude":"145.21499633789062","latitude":"-15.685799598693848","altitude":0},{"name":"Kimberley Downs Airport","city":"Kimberley Downs","country":"Australia","iata":"KBD","icao":"AU-KBD","longitude":"124.3550033569336","latitude":"-17.39780044555664","altitude":0},{"name":"Kulgera Airport","city":"Kulgera","country":"Australia","iata":"KGR","icao":"AU-KGR","longitude":"133.29200744628906","latitude":"-25.84280014038086","altitude":0},{"name":"Miranda Downs Airport","city":"Miranda Downs","country":"Australia","iata":"MWY","icao":"AU-MWY","longitude":"141.886002","latitude":"-17.328899","altitude":0},{"name":"Camballin Airport","city":"Myroodah","country":"Australia","iata":"MYO","icao":"AU-MYO","longitude":"124.27200317382812","latitude":"-18.12470054626465","altitude":0},{"name":"Orchid Beach Airport","city":"Orchid Beach","country":"Australia","iata":"OKB","icao":"AU-OKB","longitude":"153.31500244141","latitude":"-24.959400177002","altitude":233},{"name":"Peppimenarti Airport","city":"Peppimenarti","country":"Australia","iata":"PEP","icao":"AU-PEP","longitude":"130.091003418","latitude":"-14.144200325","altitude":272},{"name":"Rockhampton Downs Airport","city":"Rockhampton Downs","country":"Australia","iata":"RDA","icao":"AU-RDA","longitude":"135.2010040283203","latitude":"-18.95330047607422","altitude":0},{"name":"Sturt Creek Airport","city":"Sturt Creek","country":"Australia","iata":"SSK","icao":"AU-SSK","longitude":"128.1739959716797","latitude":"-19.166400909423828","altitude":0},{"name":"Shaw River Airport","city":"Shaw River","country":"Australia","iata":"SWB","icao":"AU-SWB","longitude":"119.36199951171875","latitude":"-21.510299682617188","altitude":0},{"name":"Tom Price Airport","city":"Tom Price","country":"Australia","iata":"TPR","icao":"AU-TPR","longitude":"117.869003296","latitude":"-22.746000289900003","altitude":7546},{"name":"Torwood Airport","city":"Torwood","country":"Australia","iata":"TWP","icao":"AU-TWP","longitude":"143.75","latitude":"-17.363300323486328","altitude":0},{"name":"Springvale Airport","city":"Springvale","country":"Australia","iata":"ZVG","icao":"AU-ZVG","longitude":"127.66999816894531","latitude":"-17.78689956665039","altitude":0},{"name":"Aua Island Airport","city":"Aua Island","country":"Papua New Guinea","iata":"AUI","icao":"AUI","longitude":"143.064722222","latitude":"-1.46055555556","altitude":13},{"name":"Ambunti Airport","city":"Ambunti","country":"Papua New Guinea","iata":"AUJ","icao":"AUJ","longitude":"142.823166667","latitude":"-4.21566666667","altitude":164},{"name":"Agaun Airport","city":"","country":"Papua New Guinea","iata":"AUP","icao":"AUP","longitude":"149.385667","latitude":"-9.930833","altitude":10499},{"name":"Aumo Airport","city":"Aumo","country":"Papua New Guinea","iata":"AUV","icao":"AUV","longitude":"148.445277778","latitude":"-5.731111111110001","altitude":1476},{"name":"Alowe Airport","city":"Wonga Wongué Presidential Reserve","country":"Gabon","iata":"AWE","icao":"AWE","longitude":"9.444","latitude":"-0.545","altitude":1969},{"name":"Alxa Left Banner Bayanhot Airport","city":"Bayanhot","country":"China","iata":"AXF","icao":"AXF","longitude":"105.58858","latitude":"38.74831","altitude":14961},{"name":"Kompiam Airport","city":"","country":"Papua New Guinea","iata":"KPM","icao":"AYAQ","longitude":"143.924722222","latitude":"-5.38166666667","altitude":16732},{"name":"Buka Airport","city":"Buka Island","country":"Papua New Guinea","iata":"BUA","icao":"AYBK","longitude":"154.67300415039062","latitude":"-5.4223198890686035","altitude":36},{"name":"Biaru Airport","city":"Biaru","country":"Papua New Guinea","iata":"BRP","icao":"AYBR","longitude":"146.7594","latitude":"-7.6693","altitude":16076},{"name":"Chimbu Airport","city":"Kundiawa","country":"Papua New Guinea","iata":"CMU","icao":"AYCH","longitude":"144.9709930419922","latitude":"-6.024290084838867","altitude":16319},{"name":"Munduku Airport","city":"Munduku","country":"Papua New Guinea","iata":"MDM","icao":"AYDK","longitude":"143.4516","latitude":"-4.6204","altitude":328},{"name":"Kondobol Airport","city":"Kondobol","country":"Papua New Guinea","iata":"KPF","icao":"AYDL","longitude":"142.5049","latitude":"-8.5336","altitude":433},{"name":"Dinangat Airport","city":"Dinangat","country":"Papua New Guinea","iata":"DNU","icao":"AYDN","longitude":"146.6772","latitude":"-6.1546","altitude":17418},{"name":"Doini Airport","city":"Castori Islets","country":"Papua New Guinea","iata":"DOI","icao":"AYDO","longitude":"150.7218","latitude":"-10.7009","altitude":102},{"name":"Daru Airport","city":"Daru","country":"Papua New Guinea","iata":"DAU","icao":"AYDU","longitude":"143.207992554","latitude":"-9.08675956726","altitude":66},{"name":"Embessa Airport","city":"Embessa","country":"Papua New Guinea","iata":"EMS","icao":"AYEB","longitude":"148.7628","latitude":"-9.447","altitude":430},{"name":"Edwaki Airport","city":"Yellow River Mission","country":"Papua New Guinea","iata":"XYR","icao":"AYED","longitude":"141.792234","latitude":"-3.883986","altitude":623},{"name":"Eliptamin Airport","city":"Eliptamin","country":"Papua New Guinea","iata":"EPT","icao":"AYEL","longitude":"141.6779","latitude":"-5.0412","altitude":15830},{"name":"Engati Airstrip","city":"Engati","country":"Papua New Guinea","iata":"EGA","icao":"AYEN","longitude":"146.1053","latitude":"-6.9179","altitude":12188},{"name":"Emo River Airstrip","city":"Emo Mission","country":"Papua New Guinea","iata":"EMO","icao":"AYEO","longitude":"148.0415","latitude":"-9.1234","altitude":7349},{"name":"Erume Airport","city":"Erume","country":"Papua New Guinea","iata":"ERU","icao":"AYER","longitude":"146.9747","latitude":"-8.2538","altitude":21949},{"name":"Meselia Airport","city":"Demgulu","country":"Papua New Guinea","iata":"MFZ","icao":"AYES","longitude":"149.1183","latitude":"-6.1364","altitude":591},{"name":"Feramin Airport","city":"Feramin","country":"Papua New Guinea","iata":"FRQ","icao":"AYFE","longitude":"141.6988","latitude":"-5.208","altitude":15272},{"name":"Frieda River Airport","city":"Frieda River","country":"Papua New Guinea","iata":"FAQ","icao":"AYFR","longitude":"141.960138","latitude":"-4.610468","altitude":712},{"name":"Fuma Airport","city":"Fuma","country":"Papua New Guinea","iata":"FUM","icao":"AYFU","longitude":"142.4408","latitude":"-6.3933","altitude":1529},{"name":"Goroka Airport","city":"Goronka","country":"Papua New Guinea","iata":"GKA","icao":"AYGA","longitude":"145.391998291","latitude":"-6.081689834590001","altitude":17329},{"name":"Guari Airport","city":"Guari","country":"Papua New Guinea","iata":"GUG","icao":"AYGF","longitude":"146.8722","latitude":"-8.1286","altitude":21161},{"name":"Garasa Airport","city":"Au","country":"Papua New Guinea","iata":"GRL","icao":"AYGG","longitude":"147.213461","latitude":"-7.980713","altitude":8330},{"name":"Gurney Airport","city":"Gurney","country":"Papua New Guinea","iata":"GUR","icao":"AYGN","longitude":"150.333999634","latitude":"-10.3114995956","altitude":289},{"name":"Gusap Airport","city":"Gusap","country":"Papua New Guinea","iata":"GAP","icao":"AYGP","longitude":"145.959047","latitude":"-6.053196","altitude":4934},{"name":"Girua Airport","city":"Popondetta","country":"Papua New Guinea","iata":"PNP","icao":"AYGR","longitude":"148.309005737","latitude":"-8.80453968048","altitude":1020},{"name":"Gasuke Airport","city":"Gasuke","country":"Papua New Guinea","iata":"GBC","icao":"AYGS","longitude":"141.7393","latitude":"-6.1028","altitude":515},{"name":"Habi Airport","city":"Habi","country":"Papua New Guinea","iata":"HBD","icao":"AYHB","longitude":"142.4893","latitude":"-6.32","altitude":3258},{"name":"Heiweni Airport","city":"Heiweni","country":"Papua New Guinea","iata":"HNI","icao":"AYHE","longitude":"146.4276","latitude":"-7.4223","altitude":11417},{"name":"Honinabi Airport","city":"Honinabi","country":"Papua New Guinea","iata":"HNN","icao":"AYHH","longitude":"142.1771","latitude":"-16.2457","altitude":1483},{"name":"Kimbe Airport","city":"Hoskins","country":"Papua New Guinea","iata":"HKN","icao":"AYHK","longitude":"150.40499877929688","latitude":"-5.462170124053955","altitude":217},{"name":"Haivaro Airport","city":"Haivaro","country":"Papua New Guinea","iata":"HIT","icao":"AYHO","longitude":"143.059","latitude":"-6.9406","altitude":591},{"name":"Imane Airport","city":"Imane","country":"Papua New Guinea","iata":"IMN","icao":"AYII","longitude":"146.1072","latitude":"-6.7524","altitude":12664},{"name":"Kungim Airport","city":"Kungim","country":"Papua New Guinea","iata":"KGM","icao":"AYIM","longitude":"141.03","latitude":"-5.671","altitude":1145},{"name":"Imonda Airport","city":"Imonda","country":"Papua New Guinea","iata":"IMD","icao":"AYIO","longitude":"141.1573","latitude":"-3.328","altitude":3248},{"name":"Ialibu Airport","city":"Ialibu","country":"Papua New Guinea","iata":"IAL","icao":"AYIU","longitude":"143.9944","latitude":"-6.2782","altitude":22100},{"name":"Witu Airport","city":"Garove Island","country":"Papua New Guinea","iata":"WIU","icao":"AYIX","longitude":"149.440112","latitude":"-4.689522","altitude":82},{"name":"Yongai Airport","city":"Yongai","country":"Papua New Guinea","iata":"KGH","icao":"AYJO","longitude":"147.4603","latitude":"-8.5289","altitude":21325},{"name":"Losuia Airport","city":"Losuia","country":"Papua New Guinea","iata":"LSA","icao":"AYKA","longitude":"151.08099365234375","latitude":"-8.505820274353027","altitude":89},{"name":"Kopiago Airport","city":"Kopiago","country":"Papua New Guinea","iata":"KPA","icao":"AYKG","longitude":"142.4977","latitude":"-5.3883","altitude":14583},{"name":"Kiunga Airport","city":"Kiunga","country":"Papua New Guinea","iata":"UNG","icao":"AYKI","longitude":"141.28199768066406","latitude":"-6.1257100105285645","altitude":289},{"name":"Kanainj Airport","city":"Kanainj","country":"Papua New Guinea","iata":"KNE","icao":"AYKJ","longitude":"144.7072","latitude":"-5.2903","altitude":13333},{"name":"Kikori Airport","city":"Kikori","country":"Papua New Guinea","iata":"KRI","icao":"AYKK","longitude":"144.2500762939453","latitude":"-7.424379825592041","altitude":164},{"name":"Kerema Airport","city":"Kerema","country":"Papua New Guinea","iata":"KMA","icao":"AYKM","longitude":"145.770996094","latitude":"-7.96361017227","altitude":33},{"name":"Kar Kar Airport","city":"Kar Kar Island","country":"Papua New Guinea","iata":"KRX","icao":"AYKR","longitude":"145.9404","latitude":"-4.557","altitude":427},{"name":"Aropa Airport","city":"Kieta","country":"Papua New Guinea","iata":"KIE","icao":"AYKT","longitude":"155.728139","latitude":"-6.305417","altitude":66},{"name":"Kuri Airport","city":"Kuri","country":"Papua New Guinea","iata":"KUQ","icao":"AYKU","longitude":"143.276111","latitude":"-7.135083","altitude":115},{"name":"Kavieng Airport","city":"Kavieng","country":"Papua New Guinea","iata":"KVG","icao":"AYKV","longitude":"150.807998657","latitude":"-2.57940006256","altitude":23},{"name":"Londolovit Airport","city":"Londolovit","country":"Papua New Guinea","iata":"LNV","icao":"AYKY","longitude":"152.628997803","latitude":"-3.04361009598","altitude":548},{"name":"Lab Lab Airport","city":"Lab Lab Mission","country":"Papua New Guinea","iata":"LAB","icao":"AYLB","longitude":"148.0566","latitude":"-5.7204","altitude":525},{"name":"Lowai Airport","city":"Lowai","country":"Papua New Guinea","iata":"LWI","icao":"AYLO","longitude":"146.6458","latitude":"-6.3344","altitude":9514},{"name":"Leron Plains Airport","city":"Leron Plains","country":"Papua New Guinea","iata":"LPN","icao":"AYLP","longitude":"146.3434","latitude":"-6.3917","altitude":2231},{"name":"Lese Airport","city":"Lese","country":"Papua New Guinea","iata":"LNG","icao":"AYLS","longitude":"146.2765","latitude":"-8.2799","altitude":131},{"name":"Long Island Airport","city":"Long Island","country":"Papua New Guinea","iata":"LSJ","icao":"AYLX","longitude":"147.0177","latitude":"-5.3604","altitude":381},{"name":"Manari Airport","city":"Manari","country":"Papua New Guinea","iata":"MRM","icao":"AYMA","longitude":"147.6219","latitude":"-9.1908","altitude":8629},{"name":"Morobe Airport","city":"Morobe","country":"Papua New Guinea","iata":"OBM","icao":"AYMB","longitude":"147.59","latitude":"-7.74","altitude":26},{"name":"Madang Airport","city":"Madang","country":"Papua New Guinea","iata":"MAG","icao":"AYMD","longitude":"145.789001465","latitude":"-5.20707988739","altitude":66},{"name":"Mount Hagen Kagamuga Airport","city":"Mount Hagen","country":"Papua New Guinea","iata":"HGU","icao":"AYMH","longitude":"144.29600524902344","latitude":"-5.826789855957031","altitude":17677},{"name":"Mougulu Airport","city":"Mougulu","country":"Papua New Guinea","iata":"GUV","icao":"AYML","longitude":"142.420775","latitude":"-6.280859","altitude":2707},{"name":"Mendi Airport","city":"Mendi","country":"Papua New Guinea","iata":"MDU","icao":"AYMN","longitude":"143.656998","latitude":"-6.14774","altitude":18635},{"name":"Momote Airport","city":"Manus Island","country":"Papua New Guinea","iata":"MAS","icao":"AYMO","longitude":"147.423996","latitude":"-2.06189","altitude":39},{"name":"Moro Airport","city":"Moro","country":"Papua New Guinea","iata":"MXH","icao":"AYMR","longitude":"143.238006592","latitude":"-6.36332988739","altitude":8990},{"name":"Misima Island Airport","city":"Misima Island","country":"Papua New Guinea","iata":"MIS","icao":"AYMS","longitude":"152.837997437","latitude":"-10.689200401299999","altitude":85},{"name":"Marawaka Airport","city":"Marawaka","country":"Papua New Guinea","iata":"MWG","icao":"AYMW","longitude":"145.8849","latitude":"-6.9736","altitude":19849},{"name":"Nankina Airport","city":"Gwarawon","country":"Papua New Guinea","iata":"NKN","icao":"AYNA","longitude":"146.4533","latitude":"-5.837","altitude":19029},{"name":"Negarbo(Negabo) Airport","city":"Negarbo","country":"Papua New Guinea","iata":"GBF","icao":"AYNE","longitude":"144.703058","latitude":"-6.567778","altitude":14764},{"name":"Manguna Airport","city":"Manguna","country":"Papua New Guinea","iata":"MFO","icao":"AYNG","longitude":"151.792333","latitude":"-5.577778","altitude":614},{"name":"Kasonombe Airport","city":"Kasonombe","country":"Papua New Guinea","iata":"KSB","icao":"AYNM","longitude":"146.9859","latitude":"-6.3819","altitude":19029},{"name":"Nomane Airport","city":"Namane","country":"Papua New Guinea","iata":"NMN","icao":"AYNO","longitude":"145.070667","latitude":"-6.32183","altitude":19790},{"name":"Nambaiyufa Airport","city":"Nambaiyufa","country":"Papua New Guinea","iata":"NBA","icao":"AYNY","longitude":"145.2424","latitude":"-6.2412","altitude":18209},{"name":"Nadzab Airport","city":"Lae","country":"Papua New Guinea","iata":"LAE","icao":"AYNZ","longitude":"146.725977","latitude":"-6.569803","altitude":784},{"name":"Konge Airport","city":"Konge","country":"Papua New Guinea","iata":"KGB","icao":"AYOE","longitude":"147.2152","latitude":"-6.2239","altitude":19357},{"name":"Oksapmin Airport","city":"Oksapmin","country":"Papua New Guinea","iata":"OKP","icao":"AYOJ","longitude":"142.2259","latitude":"-5.2261","altitude":16864},{"name":"Komako Airport","city":"Komako","country":"Papua New Guinea","iata":"HOC","icao":"AYOK","longitude":"145.8827","latitude":"-7.3984","altitude":12992},{"name":"Komaio Airport","city":"Komaio","country":"Papua New Guinea","iata":"KCJ","icao":"AYOQ","longitude":"143.5952","latitude":"-7.2714","altitude":92},{"name":"Koroba Airport","city":"Koroba","country":"Papua New Guinea","iata":"KDE","icao":"AYOW","longitude":"142.7441","latitude":"-5.6952","altitude":18497},{"name":"Open Bay Airport","city":"Maitanakunai","country":"Papua New Guinea","iata":"OPB","icao":"AYOY","longitude":"151.696195","latitude":"-4.794727","altitude":108},{"name":"Pangoa Airport","city":"Pangoa","country":"Papua New Guinea","iata":"PGB","icao":"AYPC","longitude":"141.5605","latitude":"-7.0226","altitude":197},{"name":"Pangia Airport","city":"Pangia","country":"Papua New Guinea","iata":"PGN","icao":"AYPG","longitude":"144.1084","latitude":"-6.386","altitude":17520},{"name":"Mapoda Airport","city":"Mapoda","country":"Papua New Guinea","iata":"MPF","icao":"AYPO","longitude":"143.1694","latitude":"-7.979","altitude":148},{"name":"Pumani Airport","city":"Pumani","country":"Papua New Guinea","iata":"PMN","icao":"AYPQ","longitude":"149.4766","latitude":"-9.7469","altitude":1401},{"name":"Port Moresby Jacksons International Airport","city":"Port Moresby","country":"Papua New Guinea","iata":"POM","icao":"AYPY","longitude":"147.22000122070312","latitude":"-9.443380355834961","altitude":479},{"name":"Sopu Airport","city":"Sopu","country":"Papua New Guinea","iata":"SPH","icao":"AYQO","longitude":"147.1659","latitude":"-8.3038","altitude":21588},{"name":"Sialum Airport","city":"Sialum","country":"Papua New Guinea","iata":"SXA","icao":"AYQS","longitude":"147.5955","latitude":"-6.0908","altitude":558},{"name":"Rumginae Airport","city":"","country":"Papua New Guinea","iata":"RMN","icao":"AYRG","longitude":"141.271666667","latitude":"-5.89722222222","altitude":525},{"name":"Karimui Airport","city":"Karimui","country":"Papua New Guinea","iata":"KMR","icao":"AYRI","longitude":"144.823","latitude":"-6.4921","altitude":11942},{"name":"Maramuni Airport","city":"Maramuni","country":"Papua New Guinea","iata":"MWI","icao":"AYRM","longitude":"143.4829","latitude":"-5.13","altitude":16929},{"name":"May River Airstrip","city":"May River","country":"Papua New Guinea","iata":"MRH","icao":"AYRV","longitude":"141.785","latitude":"-4.3615","altitude":351},{"name":"Suabi Airport","city":"","country":"Papua New Guinea","iata":"SBE","icao":"AYSA","longitude":"142.278333333","latitude":"-6.10444444444","altitude":1526},{"name":"Simberi Airport","city":"Simberi Island","country":"Papua New Guinea","iata":"NIS","icao":"AYSE","longitude":"151.997777778","latitude":"-2.66222222222","altitude":33},{"name":"Sila Airport","city":"Sila Mission","country":"Papua New Guinea","iata":"SIL","icao":"AYSG","longitude":"148.38925","latitude":"-9.07355555556","altitude":7316},{"name":"Sabah Airport","city":"Sabah","country":"Papua New Guinea","iata":"SBV","icao":"AYSH","longitude":"155.0489","latitude":"-5.5765","altitude":33},{"name":"Simbai Airport","city":"Simbai","country":"Papua New Guinea","iata":"SIM","icao":"AYSJ","longitude":"144.544722222","latitude":"-5.278611111110001","altitude":19042},{"name":"Selbang Airport","city":"Selbang","country":"Papua New Guinea","iata":"SBC","icao":"AYSO","longitude":"141.752","latitude":"-5.315","altitude":16831},{"name":"Sepik Plains Airport","city":"Sepik Plains","country":"Papua New Guinea","iata":"SPV","icao":"AYSQ","longitude":"143.6734","latitude":"-3.8821","altitude":755},{"name":"Sauren Airport","city":"Sauren","country":"Papua New Guinea","iata":"SXW","icao":"AYSV","longitude":"148.8543","latitude":"-5.9701","altitude":151},{"name":"Masa Airport","city":"Masa","country":"Papua New Guinea","iata":"MBV","icao":"AYSX","longitude":"147.591","latitude":"-6.345","altitude":19357},{"name":"Tari Airport","city":"Tari","country":"Papua New Guinea","iata":"TIZ","icao":"AYTA","longitude":"142.947998047","latitude":"-5.84499979019","altitude":18045},{"name":"Tabubil Airport","city":"Tabubil","country":"Papua New Guinea","iata":"TBG","icao":"AYTB","longitude":"141.225998","latitude":"-5.27861","altitude":5151},{"name":"Tapini Airport","city":"Tapini","country":"Papua New Guinea","iata":"TPI","icao":"AYTI","longitude":"146.989166667","latitude":"-8.35666666667","altitude":10171},{"name":"Tokua Airport","city":"Tokua","country":"Papua New Guinea","iata":"RAB","icao":"AYTK","longitude":"152.380004883","latitude":"-4.34045982361","altitude":105},{"name":"Tekin Airport","city":"Tekin","country":"Papua New Guinea","iata":"TKW","icao":"AYTN","longitude":"142.165194444","latitude":"-5.24366666667","altitude":18980},{"name":"Tep Tep Airport","city":"Teptep","country":"Papua New Guinea","iata":"TEP","icao":"AYTP","longitude":"146.5595","latitude":"-5.9553","altitude":23002},{"name":"Tsewi Airport","city":"Tsewi","country":"Papua New Guinea","iata":"TSW","icao":"AYTS","longitude":"146.1272","latitude":"-7.0695","altitude":13730},{"name":"Tarakbits Airport","city":"Tarakbits","country":"Papua New Guinea","iata":"TRJ","icao":"AYTT","longitude":"141.0421","latitude":"-5.614","altitude":922},{"name":"Tawa Airport","city":"Tawa","country":"Papua New Guinea","iata":"TWY","icao":"AYTW","longitude":"146.1067","latitude":"-7.4463","altitude":16470},{"name":"Tekadu Airport","city":"Tekadu","country":"Papua New Guinea","iata":"TKB","icao":"AYTZ","longitude":"146.5503","latitude":"-7.6808","altitude":4298},{"name":"Aiyura Airport","city":"Aiyura Valley","country":"Papua New Guinea","iata":"AYU","icao":"AYU","longitude":"145.904166667","latitude":"-6.33805555556","altitude":17569},{"name":"Umba Airport","city":"Umba","country":"Papua New Guinea","iata":"UMC","icao":"AYUC","longitude":"145.966","latitude":"-7.0214","altitude":19521},{"name":"Uroubi Airport","city":"Uroubi","country":"Papua New Guinea","iata":"URU","icao":"AYUE","longitude":"148.5591","latitude":"-9.5162","altitude":1578},{"name":"Upiara Airport","city":"Upiara","country":"Papua New Guinea","iata":"UPR","icao":"AYUR","longitude":"142.6503","latitude":"-8.5411","altitude":171},{"name":"Uvol Airport","city":"Uvol","country":"Papua New Guinea","iata":"UVO","icao":"AYUZ","longitude":"150.9557","latitude":"-6.0178","altitude":49},{"name":"Talasea Airport","city":"Talasea","country":"Papua New Guinea","iata":"TLW","icao":"AYVL","longitude":"150.0089","latitude":"-5.2726","altitude":144},{"name":"Torembi Airport","city":"Torembi","country":"Papua New Guinea","iata":"TCJ","icao":"AYVM","longitude":"143.1329","latitude":"-4.0165","altitude":295},{"name":"Vanimo Airport","city":"Vanimo","country":"Papua New Guinea","iata":"VAI","icao":"AYVN","longitude":"141.3028","latitude":"-2.6926","altitude":33},{"name":"Tonu Airport","city":"Tonu","country":"Papua New Guinea","iata":"TON","icao":"AYVO","longitude":"155.4326","latitude":"-6.6552","altitude":984},{"name":"Wabo Airport","city":"Wabo","country":"Papua New Guinea","iata":"WAO","icao":"AYWB","longitude":"145.075111111","latitude":"-6.98944444444","altitude":433},{"name":"Wapenamanda Airport","city":"","country":"Papua New Guinea","iata":"WBM","icao":"AYWD","longitude":"143.89500427246094","latitude":"-5.6433000564575195","altitude":19321},{"name":"Wawoi Falls Airport","city":"Wavoi Falls","country":"Papua New Guinea","iata":"WAJ","icao":"AYWF","longitude":"142.6557","latitude":"-6.9523","altitude":1214},{"name":"Wewak International Airport","city":"Wewak","country":"Papua New Guinea","iata":"WWK","icao":"AYWK","longitude":"143.669006348","latitude":"-3.58383011818","altitude":62},{"name":"Wonenara Airport","city":"Wonenara","country":"Papua New Guinea","iata":"WOA","icao":"AYWO","longitude":"145.891944444","latitude":"-6.796861111110001","altitude":16496},{"name":"Wakunai Airport","city":"Wakunai","country":"Papua New Guinea","iata":"WKN","icao":"AYWQ","longitude":"155.2223","latitude":"-5.8603","altitude":66},{"name":"Wasu Airport","city":"Wasu","country":"Papua New Guinea","iata":"WSU","icao":"AYWS","longitude":"147.19822526","latitude":"-5.96170944919","altitude":112},{"name":"Woitape Airport","city":"Fatima Mission","country":"Papua New Guinea","iata":"WTP","icao":"AYWT","longitude":"147.2525","latitude":"-8.54583333333","altitude":17060},{"name":"Wau Airport","city":"Wau","country":"Papua New Guinea","iata":"WUG","icao":"AYWU","longitude":"146.718611111","latitude":"-7.345555555560001","altitude":11811},{"name":"Yeva Airport","city":"Yeva","country":"Papua New Guinea","iata":"YVD","icao":"AYXE","longitude":"146.188","latitude":"-7.548","altitude":14797},{"name":"Sim Airport","city":"Sim","country":"Papua New Guinea","iata":"SMJ","icao":"AYXI","longitude":"146.9273","latitude":"-7.75","altitude":17913},{"name":"Weam Airport","city":"Weam","country":"Papua New Guinea","iata":"WEP","icao":"AYXW","longitude":"141.1381","latitude":"-8.6184","altitude":164},{"name":"Yalumet Airport","city":"Yalumet","country":"Papua New Guinea","iata":"KYX","icao":"AYYE","longitude":"147.0117","latitude":"-6.09","altitude":8530},{"name":"Yasuru Airport","city":"Yasuru","country":"Papua New Guinea","iata":"KSX","icao":"AYYR","longitude":"146.1813","latitude":"-6.6015","altitude":4987},{"name":"Wasum Airport","city":"Wasum","country":"Papua New Guinea","iata":"WUM","icao":"AYZM","longitude":"149.337","latitude":"-6.0491","altitude":574},{"name":"Zabrat Airport","city":"Baku","country":"Azerbaijan","iata":"ZXT","icao":"AZ-0001","longitude":"49.9768066406","latitude":"40.4955422161","altitude":118},{"name":"Amazon Bay Airport","city":"","country":"Papua New Guinea","iata":"AZB","icao":"AZB","longitude":"149.338333333","latitude":"-10.2991666667","altitude":39},{"name":"Bali Airport","city":"Unea Island","country":"Papua New Guinea","iata":"BAJ","icao":"BAJ","longitude":"149.133333333","latitude":"-4.8833333333299995","altitude":295},{"name":"Branson Airport","city":"Branson","country":"United States of America","iata":"BKG","icao":"BBG","longitude":"-93.200544","latitude":"36.532082","altitude":4272},{"name":"Bambu Airport","city":"Bambu","country":"Papua New Guinea","iata":"BCP","icao":"BCP","longitude":"146.4925","latitude":"-5.863611111110001","altitude":22277},{"name":"Benguera Island Airport","city":"Benguera Island","country":"Mozambique","iata":"BCW","icao":"BCW","longitude":"35.43830108642578","latitude":"-21.853300094604492","altitude":0},{"name":"Milyakburra Airport","city":"Bickerton Island","country":"Australia","iata":"BCZ","icao":"BCZ","longitude":"136.201666667","latitude":"-13.780833333299999","altitude":279},{"name":"Willmar Municipal -John L Rice Field","city":"Willmar","country":"United States of America","iata":"ILL","icao":"BDH","longitude":"-95.13040161","latitude":"45.11769867","altitude":3694},{"name":"Baindoung Airport","city":"","country":"Papua New Guinea","iata":"BDZ","icao":"BDZ","longitude":"146.942222222","latitude":"-6.34722222222","altitude":14436},{"name":"Malevo Airport","city":"Haskovo","country":"Bulgaria","iata":"HKV","icao":"BG-HKV","longitude":"25.6047992706","latitude":"41.871799469","altitude":1969},{"name":"Bezmer Air Base","city":"Yambol","country":"Bulgaria","iata":"JAM","icao":"BG-JAM","longitude":"26.3521995544","latitude":"42.4548988342","altitude":1670},{"name":"Aasiaat Airport","city":"Aasiaat","country":"Greenland","iata":"JEG","icao":"BGAA","longitude":"-52.7846984863","latitude":"68.7218017578","altitude":243},{"name":"Narsarsuaq Airport","city":"Narsarsuaq","country":"Greenland","iata":"UAK","icao":"BGBW","longitude":"-45.4259986877","latitude":"61.1604995728","altitude":367},{"name":"Neerlerit Inaat Airport","city":"Neerlerit Inaat","country":"Greenland","iata":"CNP","icao":"BGCO","longitude":"-22.6504993439","latitude":"70.7431030273","altitude":148},{"name":"Godthaab / Nuuk Airport","city":"Nuuk","country":"Greenland","iata":"GOH","icao":"BGGH","longitude":"-51.6781005859","latitude":"64.19090271","altitude":928},{"name":"Ilulissat Airport","city":"Ilulissat","country":"Greenland","iata":"JAV","icao":"BGJN","longitude":"-51.0570983887","latitude":"69.2432022095","altitude":312},{"name":"Kulusuk Airport","city":"Kulusuk","country":"Greenland","iata":"KUS","icao":"BGKK","longitude":"-37.1236000061","latitude":"65.573600769","altitude":384},{"name":"Maniitsoq Airport","city":"Maniitsoq","country":"Greenland","iata":"JSU","icao":"BGMQ","longitude":"-52.9393997192","latitude":"65.4124984741","altitude":299},{"name":"Bongo Airport","city":"Bongo","country":"Gabon","iata":"BGP","icao":"BGP","longitude":"10.2088","latitude":"-2.1713","altitude":394},{"name":"Paamiut Airport","city":"Paamiut","country":"Greenland","iata":"JFR","icao":"BGPT","longitude":"-49.6709365845","latitude":"62.0147361755","altitude":394},{"name":"Qaanaaq Airport","city":"Qaanaaq","country":"Greenland","iata":"NAQ","icao":"BGQQ","longitude":"-69.3887023926","latitude":"77.4886016846","altitude":167},{"name":"Kangerlussuaq Airport","city":"Kangerlussuaq","country":"Greenland","iata":"SFJ","icao":"BGSF","longitude":"-50.7116031647","latitude":"67.0122218992","altitude":541},{"name":"Sisimiut Airport","city":"Sisimiut","country":"Greenland","iata":"JHS","icao":"BGSS","longitude":"-53.729301","latitude":"66.951302","altitude":108},{"name":"Thule Air Base","city":"Thule","country":"Greenland","iata":"THU","icao":"BGTL","longitude":"-68.7032012939","latitude":"76.5311965942","altitude":823},{"name":"Upernavik Airport","city":"Upernavik","country":"Greenland","iata":"JUV","icao":"BGUK","longitude":"-56.1305999756","latitude":"72.7901992798","altitude":1358},{"name":"Qaarsut Airport","city":"Uummannaq","country":"Greenland","iata":"JQA","icao":"BGUQ","longitude":"-52.6962013245","latitude":"70.7341995239","altitude":948},{"name":"Bahía de los Ángeles Airport","city":"Bahía de los Ángeles","country":"Mexico","iata":"BHL","icao":"BHL","longitude":"-113.560997","latitude":"28.9786","altitude":112},{"name":"Brighton Downs Airport","city":"","country":"Australia","iata":"BHT","icao":"BHT","longitude":"141.562777778","latitude":"-23.3638888889","altitude":1280},{"name":"Akureyri Airport","city":"Akureyri","country":"Iceland","iata":"AEY","icao":"BIAR","longitude":"-18.07270050048828","latitude":"65.66000366210938","altitude":20},{"name":"Bildudalur Airport","city":"Bildudalur","country":"Iceland","iata":"BIU","icao":"BIBD","longitude":"-23.546199798583984","latitude":"65.64129638671875","altitude":59},{"name":"Borgarfjörður eystri Airport","city":"Borgarfjörður eystri","country":"Iceland","iata":"BGJ","icao":"BIBF","longitude":"-13.805000305175781","latitude":"65.51640319824219","altitude":262},{"name":"Bakkafjörður Airport","city":"Bakkafjörður","country":"Iceland","iata":"BJD","icao":"BIBK","longitude":"-14.824399948120117","latitude":"66.02189636230469","altitude":46},{"name":"Hjaltabakki Airport","city":"Blönduós","country":"Iceland","iata":"BLO","icao":"BIBL","longitude":"-20.287500381469727","latitude":"65.6449966430664","altitude":430},{"name":"Búðardalur Airport","city":"Búðardalur","country":"Iceland","iata":"BQD","icao":"BIBR","longitude":"-21.80030059814453","latitude":"65.07530212402344","altitude":430},{"name":"Breiðdalsvík Airport","city":"Breiðdalsvík","country":"Iceland","iata":"BXV","icao":"BIBV","longitude":"-14.02280044555664","latitude":"64.79000091552734","altitude":26},{"name":"Djúpivogur Airport","city":"Djúpivogur","country":"Iceland","iata":"DJU","icao":"BIDV","longitude":"-14.28279972076416","latitude":"64.64420318603516","altitude":30},{"name":"Egilsstaðir Airport","city":"Egilsstaðir","country":"Iceland","iata":"EGS","icao":"BIEG","longitude":"-14.401399612426758","latitude":"65.2833023071289","altitude":249},{"name":"Fáskrúðsfjörður Airport","city":"Fáskrúðsfjörður","country":"Iceland","iata":"FAS","icao":"BIFF","longitude":"-14.0606002808","latitude":"64.9317016602","altitude":49},{"name":"Fagurhólsmýri Airport","city":"Fagurhólsmýri","country":"Iceland","iata":"FAG","icao":"BIFM","longitude":"-16.64109992980957","latitude":"63.874698638916016","altitude":184},{"name":"Grundarfjörður Airport","city":"Grundarfjörður","country":"Iceland","iata":"GUU","icao":"BIGF","longitude":"-23.224700927734375","latitude":"64.99140167236328","altitude":56},{"name":"Gjögur Airport","city":"Gjögur","country":"Iceland","iata":"GJR","icao":"BIGJ","longitude":"-21.326900482177734","latitude":"65.99530029296875","altitude":272},{"name":"Grímsey Airport","city":"Grímsey","country":"Iceland","iata":"GRY","icao":"BIGR","longitude":"-18.0173","latitude":"66.5458","altitude":217},{"name":"Hólmavík Airport","city":"Hólmavík","country":"Iceland","iata":"HVK","icao":"BIHK","longitude":"-21.696399688720703","latitude":"65.70469665527344","altitude":295},{"name":"Hornafjörður Airport","city":"Höfn","country":"Iceland","iata":"HFN","icao":"BIHN","longitude":"-15.2272","latitude":"64.295601","altitude":79},{"name":"Holt Airport","city":"Flateyri","country":"Iceland","iata":"FLI","icao":"BIHT","longitude":"-23.4416913986","latitude":"66.0141804294","altitude":33},{"name":"Húsavík Airport","city":"Húsavík","country":"Iceland","iata":"HZK","icao":"BIHU","longitude":"-17.426001","latitude":"65.952301","altitude":157},{"name":"Krókstaðarmelar Airport","city":"Hvammstangi","country":"Iceland","iata":"HVM","icao":"BIHV","longitude":"-20.846900939941406","latitude":"65.26640319824219","altitude":538},{"name":"Ingjaldssanður Airport","city":"Onundarfjörður","country":"Iceland","iata":"HLO","icao":"BIID","longitude":"-23.69610023498535","latitude":"66.05000305175781","altitude":230},{"name":"Ísafjörður Airport","city":"Ísafjörður","country":"Iceland","iata":"IFJ","icao":"BIIS","longitude":"-23.135299682617188","latitude":"66.05809783935547","altitude":26},{"name":"Keflavik International Airport","city":"Reykjavík","country":"Iceland","iata":"KEF","icao":"BIKF","longitude":"-22.6056","latitude":"63.985001","altitude":561},{"name":"Kópasker Airport","city":"Kópasker","country":"Iceland","iata":"OPA","icao":"BIKP","longitude":"-16.466699600219727","latitude":"66.31079864501953","altitude":66},{"name":"Sauðárkrókur Airport","city":"Sauðárkrókur","country":"Iceland","iata":"SAK","icao":"BIKR","longitude":"-19.572799682599996","latitude":"65.73169708249999","altitude":26},{"name":"Norðfjörður Airport","city":"Norðfjörður","country":"Iceland","iata":"NOR","icao":"BINF","longitude":"-13.746399879455566","latitude":"65.13189697265625","altitude":43},{"name":"Ólafsfjörður Airport","city":"Ólafsfjörður","country":"Iceland","iata":"OFJ","icao":"BIOF","longitude":"-18.66670036315918","latitude":"66.08329772949219","altitude":105},{"name":"Patreksfjörður Airport","city":"Patreksfjörður","country":"Iceland","iata":"PFJ","icao":"BIPA","longitude":"-23.965","latitude":"65.555801","altitude":36},{"name":"Reykhólar Airport","city":"Reykhólar","country":"Iceland","iata":"RHA","icao":"BIRE","longitude":"-22.20611572265625","latitude":"65.45262908935547","altitude":197},{"name":"Rif Airport","city":"Rif","country":"Iceland","iata":"OLI","icao":"BIRF","longitude":"-23.8230991364","latitude":"64.9113998413","altitude":59},{"name":"Raufarhöfn Airport","city":"Raufarhöfn","country":"Iceland","iata":"RFN","icao":"BIRG","longitude":"-15.918299674987793","latitude":"66.40640258789062","altitude":128},{"name":"Reykjavik Airport","city":"Reykjavik","country":"Iceland","iata":"RKV","icao":"BIRK","longitude":"-21.9405994415","latitude":"64.1299972534","altitude":157},{"name":"Reykjahlíð Airport","city":"Myvatn","country":"Iceland","iata":"MVA","icao":"BIRL","longitude":"-16.918100357055664","latitude":"65.65579986572266","altitude":3379},{"name":"Siglufjörður Airport","city":"Siglufjörður","country":"Iceland","iata":"SIJ","icao":"BISI","longitude":"-18.9167","latitude":"66.133301","altitude":33},{"name":"Stykkishólmur Airport","city":"Stykkishólmur","country":"Iceland","iata":"SYK","icao":"BIST","longitude":"-22.794200897216797","latitude":"65.05809783935547","altitude":138},{"name":"Þingeyri Airport","city":"Þingeyri","country":"Iceland","iata":"TEY","icao":"BITE","longitude":"-23.559999465942383","latitude":"65.87030029296875","altitude":213},{"name":"Thorshofn Airport","city":"Thorshofn","country":"Iceland","iata":"THO","icao":"BITN","longitude":"-15.335599899291992","latitude":"66.21849822998047","altitude":213},{"name":"Vestmannaeyjar Airport","city":"Vestmannaeyjar","country":"Iceland","iata":"VEY","icao":"BIVM","longitude":"-20.278900146484375","latitude":"63.42430114746094","altitude":1070},{"name":"Vopnafjörður Airport","city":"Vopnafjörður","country":"Iceland","iata":"VPN","icao":"BIVO","longitude":"-14.850600242614746","latitude":"65.72059631347656","altitude":52},{"name":"Baleela Airport","city":"Baleela Base Camp","country":"Sudan","iata":"BJE","icao":"BJE","longitude":"28.5230555556","latitude":"11.199444444400001","altitude":5545},{"name":"Bahja Airport","city":"Bahja","country":"Oman","iata":"BJQ","icao":"BJQ","longitude":"56.067777777799996","latitude":"19.8730555556","altitude":1690},{"name":"Priština International Airport","city":"Prishtina","iata":"PRN","icao":"BKPR","longitude":"21.035801","latitude":"42.5728","altitude":5869},{"name":"Bomai Airport","city":"Bomai","country":"Papua New Guinea","iata":"BMH","icao":"BMH","longitude":"144.637","latitude":"-6.37316666667","altitude":10827},{"name":"Bamburi Airport","city":"","country":"Kenya","iata":"BMQ","icao":"BMQ","longitude":"39.730768","latitude":"-3.98191","altitude":171},{"name":"Bamu Airport","city":"Bamu","country":"Papua New Guinea","iata":"BMZ","icao":"BMZ","longitude":"143.2433","latitude":"-7.8485","altitude":164},{"name":"Bodinumu Airport","city":"Bodinumu","country":"Papua New Guinea","iata":"BNM","icao":"BNM","longitude":"147.666722222","latitude":"-9.107777777779999","altitude":12139},{"name":"Bundi Airport","city":"Bundi","country":"Papua New Guinea","iata":"BNT","icao":"BNT","longitude":"145.2275","latitude":"-5.742222222220001","altitude":14436},{"name":"Rurenabaque Airport","city":"Rurenabaque","country":"Bolivia, Plurinational State of","iata":"RBQ","icao":"BO-0001","longitude":"-67.4968032837","latitude":"-14.427900314299999","altitude":2218},{"name":"Baures Airport","city":"Baures","country":"Bolivia, Plurinational State of","iata":"BVL","icao":"BO-BVL","longitude":"-63.5833320618","latitude":"-13.583333015400001","altitude":1542},{"name":"Brookings Airport","city":"Brookings","country":"United States of America","iata":"BOK","icao":"BOK","longitude":"-124.290001","latitude":"42.0746","altitude":1506},{"name":"Bosset Airport","city":"Bosset","country":"Papua New Guinea","iata":"BOT","icao":"BOT","longitude":"141.1063222","latitude":"-7.237257","altitude":262},{"name":"Boang Airport","city":"Boang Island","country":"Papua New Guinea","iata":"BOV","icao":"BOV","longitude":"153.2812","latitude":"-3.3834","altitude":279},{"name":"Batuna Aerodrome","city":"Batuna Mission Station","country":"Solomon Islands","iata":"BPF","icao":"BPF","longitude":"158.119305556","latitude":"-8.56202777778","altitude":79},{"name":"Alenquer Airport","city":"Alenquer","country":"Brazil","iata":"ALT","icao":"BR-ALT","longitude":"-54.7231","latitude":"-1.917","altitude":180},{"name":"Bensbach Airport","city":"Bensbach","country":"Papua New Guinea","iata":"BSP","icao":"BSP","longitude":"141.259444444","latitude":"-8.85805555556","altitude":98},{"name":"Besakoa Airport","city":"Besakoa","country":"Madagascar","iata":"BSV","icao":"BSV","longitude":"47.0616666667","latitude":"-15.6725","altitude":131},{"name":"Bulolo Airport","city":"Bulolo","country":"Papua New Guinea","iata":"BUL","icao":"BUL","longitude":"146.649541855","latitude":"-7.216286671410001","altitude":7349},{"name":"Esperadinha Airport","city":"Brava Island","country":"Cabo Verde","iata":"BVR","icao":"BVR","longitude":"-24.746","latitude":"14.864305555600001","altitude":210},{"name":"Hukuntsi Airport","city":"Hukuntsi","country":"Botswana","iata":"HUK","icao":"BW-HUK","longitude":"21.758101","latitude":"-23.9897","altitude":12205},{"name":"Bawan Airport","city":"","country":"Papua New Guinea","iata":"BWJ","icao":"BWJ","longitude":"146.881666667","latitude":"-6.396944444440001","altitude":15420},{"name":"Bewani Airport","city":"Bewani","country":"Papua New Guinea","iata":"BWP","icao":"BWP","longitude":"141.165277778","latitude":"-3.0216666666700003","altitude":1804},{"name":"Bunsil Airport","city":"Bunsil - Umboi Island","country":"Papua New Guinea","iata":"BXZ","icao":"BXZ","longitude":"147.8667","latitude":"-5.7243","altitude":659},{"name":"Boundary Airport","city":"Boundary","country":"United States of America","iata":"BYA","icao":"BYA","longitude":"-141.113006592","latitude":"64.0783004761","altitude":9646},{"name":"Bella Yella Airport","city":"Beliyela","country":"Liberia","iata":"BYL","icao":"BYL","longitude":"-9.99372222222","latitude":"7.36916666667","altitude":2264},{"name":"Hector Silva Airstrip","city":"Belmopan","country":"Belize","iata":"BCV","icao":"BZ-BCV","longitude":"-88.776496","latitude":"17.269603","altitude":492},{"name":"Big Creek Airport","city":"Big Creek","country":"Belize","iata":"BGK","icao":"BZ-BGK","longitude":"-88.40791320800781","latitude":"16.51936912536621","altitude":10},{"name":"Caye Caulker Airport","city":"Caye Caulker","country":"Belize","iata":"CUK","icao":"BZ-CUK","longitude":"-88.03250122070312","latitude":"17.734699249267578","altitude":3},{"name":"Caye Chapel Airport","city":"Caye Chapel","country":"Belize","iata":"CYC","icao":"BZ-CYC","longitude":"-88.04109954833984","latitude":"17.7007999420166","altitude":10},{"name":"Corozal Municipal Airport","city":"Corozal","country":"Belize","iata":"CZH","icao":"BZ-CZH","longitude":"-88.41190338134766","latitude":"18.382200241088867","altitude":131},{"name":"Dangriga Airport","city":"Dangriga","country":"Belize","iata":"DGA","icao":"BZ-DGA","longitude":"-88.23098754882812","latitude":"16.98250961303711","altitude":1667},{"name":"Independence Airport","city":"Independence","country":"Belize","iata":"INB","icao":"BZ-INB","longitude":"-88.44129943847656","latitude":"16.534500122070312","altitude":59},{"name":"Melinda Airport","city":"Melinda","country":"Belize","iata":"MDB","icao":"BZ-MDB","longitude":"-88.30419921880001","latitude":"17.0042991638","altitude":331},{"name":"Orange Walk Airport","city":"Orange Walk","country":"Belize","iata":"ORZ","icao":"BZ-ORZ","longitude":"-88.58386993410001","latitude":"18.0467662811","altitude":364},{"name":"Placencia Airport","city":"Placencia","country":"Belize","iata":"PLJ","icao":"BZ-PLJ","longitude":"-88.36151123046875","latitude":"16.536956787109375","altitude":10},{"name":"Punta Gorda Airport","city":"Punta Gorda","country":"Belize","iata":"PND","icao":"BZ-PND","longitude":"-88.80829620360001","latitude":"16.102399826","altitude":23},{"name":"Sartaneja Airport","city":"Sartaneja","country":"Belize","iata":"SJX","icao":"BZ-SJX","longitude":"-88.13079833984375","latitude":"18.35610008239746","altitude":10},{"name":"San Pedro Airport","city":"San Pedro","country":"Belize","iata":"SPR","icao":"BZ-SPR","longitude":"-87.9711","latitude":"17.9139","altitude":13},{"name":"Matthew Spain Airport","city":"San Ignacio","country":"Belize","iata":"SQS","icao":"BZ-SQS","longitude":"-89.0098","latitude":"17.1859","altitude":653},{"name":"Santa Cruz Airport","city":"Santa Cruz","country":"Belize","iata":"STU","icao":"BZ-STU","longitude":"-88.456298828125","latitude":"18.2721004486084","altitude":59},{"name":"Silver Creek Airport","city":"Silver Creek","country":"Belize","iata":"SVK","icao":"BZ-SVK","longitude":"-88.33999633789062","latitude":"16.725299835205078","altitude":709},{"name":"Belize City Municipal Airport","city":"Belize City","country":"Belize","iata":"TZA","icao":"BZ-TZA","longitude":"-88.19444274902344","latitude":"17.516389846801758","altitude":52},{"name":"Bazaruto Island Airport","city":"Bazaruto Island","country":"Mozambique","iata":"BZB","icao":"BZB","longitude":"35.4729","latitude":"-21.5411","altitude":0},{"name":"Bemolanga Airport","city":"Bemolanga","country":"Madagascar","iata":"BZM","icao":"BZM","longitude":"45.0888333333","latitude":"-17.6925","altitude":3117},{"name":"Stuart Island Airstrip","city":"Big Bay","country":"Canada","iata":"YRR","icao":"CA-0446","longitude":"-125.131616592","latitude":"50.4094474336","altitude":1181},{"name":"Mary River Aerodrome","city":"","country":"Canada","iata":"YMV","icao":"CA-0504","longitude":"-79.3569444444","latitude":"71.3241666667","altitude":1916},{"name":"Trail Airport","city":"Trail","country":"Canada","iata":"YZZ","icao":"CAD4","longitude":"-117.60900116","latitude":"49.0555992126","altitude":4682},{"name":"Merritt Airport","city":"Merritt","country":"Canada","iata":"YMB","icao":"CAD5","longitude":"-120.747001648","latitude":"50.122798919699996","altitude":6824},{"name":"Chilko Lake (Tsylos Park Lodge) Airport","city":"Chilko Lake","country":"Canada","iata":"CJH","icao":"CAG3","longitude":"-124.141998291","latitude":"51.626098632799994","altitude":12631},{"name":"Courtenay Airpark","city":"Courtenay","country":"Canada","iata":"YCA","icao":"CAH3","longitude":"-124.9820022583","latitude":"49.679401397705","altitude":85},{"name":"Creston Valley Regional Airport - Art Sutcliffe Field","city":"Creston","country":"Canada","iata":"CFQ","icao":"CAJ3","longitude":"-116.49800109863","latitude":"49.03689956665","altitude":6791},{"name":"Anahim Lake Airport","city":"Anahim Lake","country":"Canada","iata":"YAA","icao":"CAJ4","longitude":"-125.3030014038086","latitude":"52.45249938964844","altitude":11926},{"name":"Douglas Lake Airport","city":"Douglas Lake","country":"Canada","iata":"DGF","icao":"CAL3","longitude":"-120.171273351","latitude":"50.1654600485","altitude":9088},{"name":"Fort MacKay/Albian Aerodrome","city":"Albian Village","country":"Canada","iata":"JHL","icao":"CAL4","longitude":"-111.418998718","latitude":"57.223899841299996","altitude":3438},{"name":"Duncan Airport","city":"Duncan","country":"Canada","iata":"DUQ","icao":"CAM3","longitude":"-123.709702492","latitude":"48.7545336204","altitude":984},{"name":"Sechelt-Gibsons Airport","city":"Sechelt","country":"Canada","iata":"YHS","icao":"CAP3","longitude":"-123.71900177","latitude":"49.460601806599996","altitude":1115},{"name":"Qualicum Beach Airport","city":"Qualicum Beach","country":"Canada","iata":"XQU","icao":"CAT4","longitude":"-124.393997","latitude":"49.3372","altitude":627},{"name":"Port Mcneill Airport","city":"Port Mcneill","country":"Canada","iata":"YMP","icao":"CAT5","longitude":"-127.028999329","latitude":"50.5755996704","altitude":738},{"name":"Cache Creek-Ashcroft Regional Airport","city":"Cache Creek","country":"Canada","iata":"YZA","icao":"CAZ5","longitude":"-121.321314","latitude":"50.775258","altitude":6673},{"name":"Bella Bella (Campbell Island) Airport","city":"Bella Bella","country":"Canada","iata":"ZEL","icao":"CBBC","longitude":"-128.156994","latitude":"52.185001","altitude":463},{"name":"Cherrabun Airport","city":"","country":"Australia","iata":"CBC","icao":"CBC","longitude":"125.537777778","latitude":"-18.917777777800005","altitude":1772},{"name":"Alberni Valley Regional Airport","city":"Port Alberni","country":"Canada","iata":"YPB","icao":"CBS8","longitude":"-124.931","latitude":"49.321899","altitude":820},{"name":"Bob Quinn Lake Airport","city":"Bob Quinn Lake","country":"Canada","iata":"YBO","icao":"CBW4","longitude":"-130.25","latitude":"56.9667015076","altitude":6562},{"name":"Tungsten (Cantung) Airport","city":"Tungsten","country":"Canada","iata":"TNS","icao":"CBX5","longitude":"-128.20300292969","latitude":"61.956901550293","altitude":11483},{"name":"Tumbler Ridge Airport","city":"Tumbler Ridge","country":"Canada","iata":"TUX","icao":"CBX7","longitude":"-120.93499755859","latitude":"55.025001525879","altitude":10089},{"name":"Williams Harbour Airport","city":"Williams Harbour","country":"Canada","iata":"YWM","icao":"CCA6","longitude":"-55.784698486328125","latitude":"52.566898345947266","altitude":230},{"name":"Postville Airport","city":"Postville","country":"Canada","iata":"YSO","icao":"CCD4","longitude":"-59.78507","latitude":"54.9105","altitude":633},{"name":"Black Tickle Airport","city":"Black Tickle","country":"Canada","iata":"YBI","icao":"CCE4","longitude":"-55.784999847399995","latitude":"53.4693984985","altitude":187},{"name":"St. Lewis (Fox Harbour) Airport","city":"St. Lewis","country":"Canada","iata":"YFX","icao":"CCK4","longitude":"-55.67390060424805","latitude":"52.372798919677734","altitude":243},{"name":"Port Hope Simpson Airport","city":"Port Hope Simpson","country":"Canada","iata":"YHA","icao":"CCP4","longitude":"-56.28609848022461","latitude":"52.528099060058594","altitude":1138},{"name":"Rigolet Airport","city":"Rigolet","country":"Canada","iata":"YRG","icao":"CCZ2","longitude":"-58.45750045776367","latitude":"54.1796989440918","altitude":591},{"name":"Diavik Airport","city":"Diavik","country":"Canada","iata":"DVK","icao":"CDK2","longitude":"-110.289001465","latitude":"64.5113983154","altitude":4636},{"name":"Doris Lake","city":"Hope Bay","country":"Canada","iata":"JOJ","icao":"CDL7","longitude":"-106.585281372","latitude":"68.1252746582","altitude":164},{"name":"Fairview Airport","city":"Fairview","country":"Canada","iata":"ZFW","icao":"CEB5","longitude":"-118.434997559","latitude":"56.081401825","altitude":7106},{"name":"Hinton/Jasper-Hinton Airport","city":"Hinton","country":"Canada","iata":"YJP","icao":"CEC4","longitude":"-117.752998352","latitude":"53.3191986084","altitude":13143},{"name":"Whatì Airport","city":"Whatì","country":"Canada","iata":"YLE","icao":"CEM3","longitude":"-117.24600219726562","latitude":"63.13169860839844","altitude":2894},{"name":"Grande Cache Airport","city":"Grande Cache","country":"Canada","iata":"YGC","icao":"CEQ5","longitude":"-118.87400054932","latitude":"53.916900634766","altitude":13507},{"name":"Drayton Valley Industrial Airport","city":"Drayton Valley","country":"Canada","iata":"YDC","icao":"CER3","longitude":"-114.95999908447","latitude":"53.265800476074","altitude":9108},{"name":"Fort McMurray / Mildred Lake Airport","city":"Fort McMurray","country":"Canada","iata":"NML","icao":"CER4","longitude":"-111.573997498","latitude":"57.0555992126","altitude":3432},{"name":"Conklin (Leismer) Airport","city":"Conklin","country":"Canada","iata":"CFM","icao":"CET2","longitude":"-111.278999","latitude":"55.695301","altitude":6332},{"name":"St. Paul Airport","city":"St. Paul","country":"Canada","iata":"ZSP","icao":"CEW3","longitude":"-111.379997253","latitude":"53.9933013916","altitude":7044},{"name":"Taltheilei Narrows Airport","city":"Taltheilei Narrows","country":"Canada","iata":"GSL","icao":"CFA7","longitude":"-111.542999268","latitude":"62.5980987549","altitude":1870},{"name":"Macmillan Pass Airport","city":"Macmillan Pass","country":"Canada","iata":"XMP","icao":"CFC4","longitude":"-130.20199585","latitude":"63.181098938","altitude":12500},{"name":"Great Bear Lake Airport","city":"Great Bear Lake","country":"Canada","iata":"DAS","icao":"CFF4","longitude":"-119.707000732","latitude":"66.7031021118","altitude":1844},{"name":"Fort Mackay / Firebag","city":"Suncor Energy Site","country":"Canada","iata":"YFI","icao":"CFG6","longitude":"-110.976666","latitude":"57.275833","altitude":5781},{"name":"Wekweètì Airport","city":"Wekweètì","country":"Canada","iata":"YFJ","icao":"CFJ2","longitude":"-114.077002","latitude":"64.190804","altitude":3963},{"name":"Donnelly Airport","city":"Donnelly","country":"Canada","iata":"YOE","icao":"CFM4","longitude":"-117.094002","latitude":"55.7094","altitude":6394},{"name":"Cheadle Airport","city":"Cheadle","country":"Canada","iata":"TIL","icao":"CFQ4","longitude":"-113.62400054932","latitude":"51.057498931885","altitude":10827},{"name":"Okoyo Airport","city":"Okoyo","country":"Congo","iata":"OKG","icao":"CG-OKG","longitude":"15.073300361633","latitude":"-1.4483300447464","altitude":4642},{"name":"Cape Gloucester Airport","city":"Cape Gloucester","country":"Papua New Guinea","iata":"CGC","icao":"CGC","longitude":"148.432417","latitude":"-5.458965","altitude":256},{"name":"Casiguran Airport","city":"Casiguran","country":"Philippines","iata":"CGG","icao":"CGG","longitude":"122.0651","latitude":"16.1941","altitude":157},{"name":"Gahcho Kue","city":"","country":"Canada","iata":"GHK","icao":"CGK2","longitude":"-109.144812","latitude":"63.435198","altitude":4498},{"name":"Circle Hot Springs Airport","city":"Circle Hot Springs","country":"United States of America","iata":"CHP","icao":"CHP","longitude":"-144.610992432","latitude":"65.485496521","altitude":3136},{"name":"Laurie River Airport","city":"Laurie River","country":"Canada","iata":"LRQ","icao":"CJC8","longitude":"-101.304000854","latitude":"56.2486000061","altitude":3937},{"name":"Hatchet Lake Airport","city":"Hatchet Lake","country":"Canada","iata":"YDJ","icao":"CJL2","longitude":"-103.53800201416","latitude":"58.662498474121","altitude":4469},{"name":"Kasba Lake Airport","city":"Kasba Lake","country":"Canada","iata":"YDU","icao":"CJL8","longitude":"-102.50199890137","latitude":"60.291900634766","altitude":3711},{"name":"Cluff Lake Airport","city":"Cluff Lake","country":"Canada","iata":"XCL","icao":"CJS3","longitude":"-109.51599884","latitude":"58.3911018372","altitude":3648},{"name":"Knee Lake Airport","city":"Knee Lake","country":"Canada","iata":"YKE","icao":"CJT3","longitude":"-94.798103","latitude":"54.915298","altitude":2051},{"name":"Summer Beaver Airport","city":"Summer Beaver","country":"Canada","iata":"SUR","icao":"CJV7","longitude":"-88.54190063476562","latitude":"52.70859909057617","altitude":2730},{"name":"Crooked Creek Airport","city":"Crooked Creek","country":"United States of America","iata":"CKD","icao":"CJX","longitude":"-158.134994507","latitude":"61.8679008484","altitude":584},{"name":"Tisdale Airport","city":"Tisdale","country":"Canada","iata":"YTT","icao":"CJY3","longitude":"-104.06700134277","latitude":"52.836700439453","altitude":5003},{"name":"Wapekeka Airport","city":"Angling Lake","country":"Canada","iata":"YAX","icao":"CKB6","longitude":"-89.57939910888672","latitude":"53.84920120239258","altitude":2336},{"name":"Wunnumin Lake Airport","city":"Wunnumin Lake","country":"Canada","iata":"WNN","icao":"CKL3","longitude":"-89.28919982910156","latitude":"52.89390182495117","altitude":2687},{"name":"Opapimiskan Lake Airport","city":"Opapimiskan Lake","country":"Canada","iata":"YBS","icao":"CKM8","longitude":"-90.3768997192","latitude":"52.6067008972","altitude":3356},{"name":"North Spirit Lake Airport","city":"North Spirit Lake","country":"Canada","iata":"YNO","icao":"CKQ3","longitude":"-92.97109985351562","latitude":"52.4900016784668","altitude":3550},{"name":"Crane Island Airstrip","city":"Crane Island","country":"United States of America","iata":"CKR","icao":"CKR","longitude":"-122.9979","latitude":"48.5978","altitude":354},{"name":"Cordova Municipal Airport","city":"Cordova","country":"United States of America","iata":"CKU","icao":"CKU","longitude":"-145.727005005","latitude":"60.5438995361","altitude":39},{"name":"North of Sixty Airport","city":"Obre Lake","country":"Canada","iata":"YDW","icao":"CKV4","longitude":"-103.12899780273","latitude":"60.316398620605","altitude":3921},{"name":"Chicken Airport","city":"Chicken","country":"United States of America","iata":"CKX","icao":"CKX","longitude":"-141.95199585","latitude":"64.0712966919","altitude":5381},{"name":"New Cametá Airport","city":"Cametá","country":"Brazil","iata":"CMT","icao":"CMT","longitude":"-49.56","latitude":"-2.2468","altitude":197},{"name":"Caia Airport","city":"Caia","country":"Mozambique","iata":"CMZ","icao":"CMZ","longitude":"35.3341","latitude":"-17.8331","altitude":512},{"name":"Tangshan Sannühe Airport","city":"Tangshan","country":"China","iata":"TVS","icao":"CN-0005","longitude":"118.002624512","latitude":"39.7178001404","altitude":164},{"name":"Yinchuan Hedong International Airport","city":"Yinchuan","country":"China","iata":"INC","icao":"CN-0010","longitude":"106.393214","latitude":"38.322758","altitude":0},{"name":"Duplicate --Yantai Penglai International Airport","city":"Yantai","country":"China","iata":"YNT","icao":"CN-0011","longitude":"120.9872","latitude":"37.65722","altitude":505},{"name":"Yuanmou Air Base","city":"Yuanmou","country":"China","iata":"YUA","icao":"CN-0012","longitude":"101.88200378418","latitude":"25.737499237061","altitude":12500},{"name":"Zhangjiakou Ningyuan Airport","city":"Zhangjiakou","country":"China","iata":"ZQZ","icao":"CN-0024","longitude":"114.930000305","latitude":"40.7386016846","altitude":7700},{"name":"Baoshan Yunduan Airport","city":"","country":"China","iata":"BSD","icao":"CN-0027","longitude":"99.168297","latitude":"25.053301","altitude":17890},{"name":"Dazu Air Base","city":"Dazu","country":"China","iata":"DZU","icao":"CN-0034","longitude":"105.773621","latitude":"29.636227","altitude":4003},{"name":"Lintsang Airfield","city":"Lincang","country":"China","iata":"LNJ","icao":"CN-0040","longitude":"100.025001526","latitude":"23.738100051900002","altitude":20440},{"name":"Shigatse Air Base","city":"Xigazê","country":"China","iata":"RKZ","icao":"CN-0046","longitude":"89.311401","latitude":"29.3519","altitude":12408},{"name":"Bao'anying Airport","city":"Panzhihua","country":"China","iata":"PZI","icao":"CN-0050","longitude":"101.79852","latitude":"26.54","altitude":5315},{"name":"Zigong Airport","city":"Zigong","country":"China","iata":"ZKL","icao":"CN-0051","longitude":"104.625789","latitude":"29.376484","altitude":3717},{"name":"Foshan Shadi Airport","city":"Foshan","country":"China","iata":"FUO","icao":"CN-0061","longitude":"113.069999695","latitude":"23.083299636799996","altitude":20},{"name":"Bazhong Enyang Airport","city":"Bazhong","country":"China","iata":"BZX","icao":"CN-0062","longitude":"106.644872","latitude":"31.73842","altitude":5919},{"name":"Xinyang Minggang Airport","city":"Xinyang","country":"China","iata":"XAI","icao":"CN-0067","longitude":"114.079141","latitude":"32.540819","altitude":1024},{"name":"Huizhou Airport","city":"Huizhou","country":"China","iata":"HUZ","icao":"CN-0068","longitude":"114.599998474","latitude":"23.0499992371","altitude":164},{"name":"Shaoguan Guitou Airport","city":"Shaoguan","country":"China","iata":"HSC","icao":"CN-0079","longitude":"113.42099762","latitude":"24.9785995483","altitude":919},{"name":"Jinggangshan Airport","city":"Ji'an","country":"China","iata":"JGS","icao":"CN-0081","longitude":"114.736999512","latitude":"26.856899261499997","altitude":922},{"name":"Baise Youjiang Airport","city":"Baise","country":"China","iata":"AEB","icao":"CN-0082","longitude":"106.959999084","latitude":"23.7206001282","altitude":1608},{"name":"Dongying Shengli Airport","city":"Dongying","country":"China","iata":"DOY","icao":"CN-0091","longitude":"118.788002014","latitude":"37.5085983276","altitude":49},{"name":"Xingcheng Air Base","city":"","country":"China","iata":"XEN","icao":"CN-0104","longitude":"120.697998047","latitude":"40.580299377399996","altitude":98},{"name":"Altay Air Base","city":"Altay","country":"China","iata":"AAT","icao":"CN-0113","longitude":"88.08580780030002","latitude":"47.7498855591","altitude":8071},{"name":"Tianshui Maijishan Airport","city":"Tianshui","country":"China","iata":"THQ","icao":"CN-0130","longitude":"105.86000061","latitude":"34.5593986511","altitude":11778},{"name":"Zhangye Ganzhou Airport","city":"Zhangye","country":"China","iata":"YZY","icao":"CN-0143","longitude":"100.675003052","latitude":"38.8018989563","altitude":17323},{"name":"Dandong Airport","city":"Dandong","country":"China","iata":"DDG","icao":"CN-0189","longitude":"124.286003","latitude":"40.0247","altitude":98},{"name":"Nantong Airport","city":"Nantong","country":"China","iata":"NTG","icao":"CN-NTG","longitude":"120.975997925","latitude":"32.0708007812","altitude":52},{"name":"Bearskin Lake Airport","city":"Bearskin Lake","country":"Canada","iata":"XBE","icao":"CNE3","longitude":"-91.0271987915039","latitude":"53.965599060058594","altitude":2625},{"name":"Natuashish Airport","city":"Natuashish","country":"Canada","iata":"YNP","icao":"CNH2","longitude":"-61.184399","latitude":"55.913898","altitude":98},{"name":"Parry Sound Area Municipal Airport","city":"Parry Sound","country":"Canada","iata":"YPD","icao":"CNK4","longitude":"-79.829697","latitude":"45.2575","altitude":2730},{"name":"Brockville - Thousand Islands Regional Tackaberry Airport","city":"Brockville","country":"Canada","iata":"XBR","icao":"CNL3","longitude":"-75.7502975464","latitude":"44.6394004822","altitude":1319},{"name":"Kingfisher Lake Airport","city":"Kingfisher Lake","country":"Canada","iata":"KIF","icao":"CNM5","longitude":"-89.85530090332031","latitude":"53.01250076293945","altitude":2841},{"name":"Ogoki Post Airport","city":"Ogoki Post","country":"Canada","iata":"YOG","icao":"CNT3","longitude":"-85.9017028809","latitude":"51.6585998535","altitude":1949},{"name":"El Troncal Airport","city":"Arauquita","country":"Colombia","iata":"ARQ","icao":"CO-ARQ","longitude":"-71.388901","latitude":"7.02106","altitude":1680},{"name":"La Chorrera Airport","city":"La Chorrera","country":"Colombia","iata":"LCR","icao":"CO-LCR","longitude":"-73.01667","latitude":"-0.733333","altitude":2326},{"name":"Las Cruces Airport","city":"Sabana De Torres","country":"Colombia","iata":"SNT","icao":"CO-SNT","longitude":"-73.505402","latitude":"7.38322","altitude":1444},{"name":"Tarapacá Airport","city":"Tarapacá","country":"Colombia","iata":"TCD","icao":"CO-TCD","longitude":"-69.747222","latitude":"-2.894722","altitude":830},{"name":"Bar River Airport","city":"Bar River","country":"Canada","iata":"YEB","icao":"CPF2","longitude":"-84.0922012329","latitude":"46.42029953","altitude":1939},{"name":"Cape Orford Airport","city":"","country":"Papua New Guinea","iata":"CPI","icao":"CPI","longitude":"152.081944444","latitude":"-5.44833333333","altitude":66},{"name":"Poplar Hill Airport","city":"Poplar Hill","country":"Canada","iata":"YHP","icao":"CPV7","longitude":"-94.2556","latitude":"52.1133","altitude":3593},{"name":"Keewaywin Airport","city":"Keewaywin","country":"Canada","iata":"KEW","icao":"CPV8","longitude":"-92.8364028931","latitude":"52.991100311299995","altitude":3241},{"name":"Sable Island Landing Strip","city":"Sable Island","country":"Canada","iata":"YSA","icao":"CSB2","longitude":"-59.960289","latitude":"43.930292","altitude":13},{"name":"Lebel-sur-Quevillon Airport","city":"Lebel-sur-Quévillon","country":"Canada","iata":"YLS","icao":"CSH4","longitude":"-77.0171966553","latitude":"49.0303001404","altitude":3150},{"name":"Snap Lake Airport","city":"Snap Lake Mine","country":"Canada","iata":"YNX","icao":"CSK6","longitude":"-110.905998","latitude":"63.593601","altitude":5108},{"name":"La Sarre Airport","city":"La Sarre","country":"Canada","iata":"SSQ","icao":"CSR8","longitude":"-79.178596496582","latitude":"48.917198181152","altitude":3438},{"name":"Chisasibi Airport","city":"Chisasibi","country":"Canada","iata":"YKU","icao":"CSU2","longitude":"-78.91690063476562","latitude":"53.805599212646484","altitude":141},{"name":"Tête-à-la-Baleine Airport","city":"Tête-à-la-Baleine","country":"Canada","iata":"ZTB","icao":"CTB6","longitude":"-59.38359832763672","latitude":"50.674400329589844","altitude":351},{"name":"Kegaska Airport","city":"Kegaska","country":"Canada","iata":"ZKG","icao":"CTK6","longitude":"-61.265800476100004","latitude":"50.1958007812","altitude":105},{"name":"Donaldson Airport","city":"Kattiniq","country":"Canada","iata":"YAU","icao":"CTP9","longitude":"-73.3214035034","latitude":"61.6622009277","altitude":6240},{"name":"La Romaine Airport","city":"La Romaine","country":"Canada","iata":"ZGS","icao":"CTT5","longitude":"-60.679401","latitude":"50.259701","altitude":295},{"name":"Fontanges Airport","city":"Fontanges","country":"Canada","iata":"YFG","icao":"CTU2","longitude":"-71.173301696777","latitude":"54.553901672363","altitude":5085},{"name":"La Tabatière Airport","city":"La Tabatière","country":"Canada","iata":"ZLT","icao":"CTU5","longitude":"-58.97560119628906","latitude":"50.8307991027832","altitude":335},{"name":"Preston Airport","city":"Preston","country":"Cuba","iata":"PST","icao":"CU-0003","longitude":"-75.6583023071289","latitude":"20.735000610351562","altitude":43},{"name":"Culion Airport","city":"Culion Island","country":"Philippines","iata":"CUJ","icao":"CUJ","longitude":"119.9378","latitude":"11.8553","altitude":509},{"name":"Hollister Municipal Airport","city":"Hollister","country":"United States of America","iata":"HLI","icao":"CVH","longitude":"-121.410003662","latitude":"36.8932991028","altitude":755},{"name":"Cape Vogel Airport","city":"","country":"Papua New Guinea","iata":"CVL","icao":"CVL","longitude":"150.019722222","latitude":"-9.67","altitude":66},{"name":"Chitina Airport","city":"Chitina","country":"United States of America","iata":"CXC","icao":"CXC","longitude":"-144.427001953","latitude":"61.582901001","altitude":1824},{"name":"Lefkoniko Airport","city":"Geçitkale","country":"Cyprus","iata":"GEC","icao":"CY-0002","longitude":"33.724358","latitude":"35.235947","altitude":479},{"name":"Arctic Bay Airport","city":"Arctic Bay","country":"Canada","iata":"YAB","icao":"CYAB","longitude":"-85.0425052643","latitude":"73.0057668174","altitude":236},{"name":"Cat Lake Airport","city":"Cat Lake","country":"Canada","iata":"YAC","icao":"CYAC","longitude":"-91.82440185546875","latitude":"51.72719955444336","altitude":4409},{"name":"La Grande-3 Airport","city":"La Grande-3","country":"Canada","iata":"YAR","icao":"CYAD","longitude":"-76.19640350339999","latitude":"53.5717010498","altitude":2543},{"name":"Fort Frances Municipal Airport","city":"Fort Frances","country":"Canada","iata":"YAG","icao":"CYAG","longitude":"-93.439697265625","latitude":"48.65420150756836","altitude":3691},{"name":"La Grande-4 Airport","city":"La Grande-4","country":"Canada","iata":"YAH","icao":"CYAH","longitude":"-73.6753005981","latitude":"53.754699707","altitude":3297},{"name":"Alert Bay Airport","city":"Alert Bay","country":"Canada","iata":"YAL","icao":"CYAL","longitude":"-126.91600036621094","latitude":"50.58219909667969","altitude":787},{"name":"Sault Ste Marie Airport","city":"Sault Ste Marie","country":"Canada","iata":"YAM","icao":"CYAM","longitude":"-84.509399","latitude":"46.485001","altitude":2067},{"name":"Kasabonika Airport","city":"Kasabonika","country":"Canada","iata":"XKS","icao":"CYAQ","longitude":"-88.6427993774414","latitude":"53.52470016479492","altitude":2205},{"name":"Kangirsuk Airport","city":"Kangirsuk","country":"Canada","iata":"YKG","icao":"CYAS","longitude":"-69.99919891357422","latitude":"60.027198791503906","altitude":1322},{"name":"Attawapiskat Airport","city":"Attawapiskat","country":"Canada","iata":"YAT","icao":"CYAT","longitude":"-82.43190002441406","latitude":"52.9275016784668","altitude":102},{"name":"St. Anthony Airport","city":"St. Anthony","country":"Canada","iata":"YAY","icao":"CYAY","longitude":"-56.083099365200006","latitude":"51.3918991089","altitude":354},{"name":"Tofino / Long Beach Airport","city":"Tofino","country":"Canada","iata":"YAZ","icao":"CYAZ","longitude":"-125.775583","latitude":"49.079833","altitude":262},{"name":"Banff Airport","city":"Banff","country":"Canada","iata":"YBA","icao":"CYBA","longitude":"-115.541861057","latitude":"51.207340469900004","altitude":15036},{"name":"Kugaaruk Airport","city":"Kugaaruk","country":"Canada","iata":"YBB","icao":"CYBB","longitude":"-89.808098","latitude":"68.534401","altitude":184},{"name":"Baie Comeau Airport","city":"Baie-Comeau","country":"Canada","iata":"YBC","icao":"CYBC","longitude":"-68.204399","latitude":"49.1325","altitude":233},{"name":"Bella Coola Airport","city":"Bella Coola","country":"Canada","iata":"QBC","icao":"CYBD","longitude":"-126.596001","latitude":"52.387501","altitude":384},{"name":"Uranium City Airport","city":"Uranium City","country":"Canada","iata":"YBE","icao":"CYBE","longitude":"-108.48100280761719","latitude":"59.5614013671875","altitude":3425},{"name":"Bonnyville Airport","city":"Bonnyville","country":"Canada","iata":"YBY","icao":"CYBF","longitude":"-110.744003","latitude":"54.304199","altitude":6024},{"name":"CFB Bagotville","city":"Bagotville","country":"Canada","iata":"YBG","icao":"CYBG","longitude":"-70.99639892578125","latitude":"48.33060073852539","altitude":1713},{"name":"Baker Lake Airport","city":"Baker Lake","country":"Canada","iata":"YBK","icao":"CYBK","longitude":"-96.077796936","latitude":"64.29889678960001","altitude":194},{"name":"Campbell River Airport","city":"Campbell River","country":"Canada","iata":"YBL","icao":"CYBL","longitude":"-125.271004","latitude":"49.950802","altitude":1135},{"name":"Tadoule Lake Airport","city":"Tadoule Lake","country":"Canada","iata":"XTL","icao":"CYBQ","longitude":"-98.512199","latitude":"58.7061","altitude":3028},{"name":"Brandon Municipal Airport","city":"Brandon","country":"Canada","iata":"YBR","icao":"CYBR","longitude":"-99.951897","latitude":"49.91","altitude":4406},{"name":"Brochet Airport","city":"Brochet","country":"Canada","iata":"YBT","icao":"CYBT","longitude":"-101.679001","latitude":"57.8894","altitude":3727},{"name":"Berens River Airport","city":"Berens River","country":"Canada","iata":"YBV","icao":"CYBV","longitude":"-97.018303","latitude":"52.358898","altitude":2388},{"name":"Lourdes de Blanc Sablon Airport","city":"Lourdes-De-Blanc-Sablon","country":"Canada","iata":"YBX","icao":"CYBX","longitude":"-57.185298919699996","latitude":"51.443599700899995","altitude":397},{"name":"Cartwright Airport","city":"Cartwright","country":"Canada","iata":"YRF","icao":"CYCA","longitude":"-57.041900634765625","latitude":"53.68280029296875","altitude":131},{"name":"Cambridge Bay Airport","city":"Cambridge Bay","country":"Canada","iata":"YCB","icao":"CYCB","longitude":"-105.138000488","latitude":"69.1081008911","altitude":295},{"name":"Cornwall Regional Airport","city":"Cornwall","country":"Canada","iata":"YCC","icao":"CYCC","longitude":"-74.56330108642578","latitude":"45.09280014038086","altitude":574},{"name":"Nanaimo Airport","city":"Nanaimo","country":"Canada","iata":"YCD","icao":"CYCD","longitude":"-123.869862556","latitude":"49.054970224899996","altitude":302},{"name":"Centralia / James T. Field Memorial Aerodrome","city":"Centralia","country":"Canada","iata":"YCE","icao":"CYCE","longitude":"-81.508301","latitude":"43.285599","altitude":2703},{"name":"Castlegar/West Kootenay Regional Airport","city":"Castlegar","country":"Canada","iata":"YCG","icao":"CYCG","longitude":"-117.632003784","latitude":"49.2963981628","altitude":5328},{"name":"Miramichi Airport","city":"Miramichi","country":"Canada","iata":"YCH","icao":"CYCH","longitude":"-65.449203","latitude":"47.007801","altitude":354},{"name":"Chatham Kent Airport","city":"Chatham-Kent","country":"Canada","iata":"XCM","icao":"CYCK","longitude":"-82.0819015503","latitude":"42.3064002991","altitude":2133},{"name":"Charlo Airport","city":"Charlo","country":"Canada","iata":"YCL","icao":"CYCL","longitude":"-66.330299","latitude":"47.990799","altitude":433},{"name":"Cochrane Airport","city":"Cochrane","country":"Canada","iata":"YCN","icao":"CYCN","longitude":"-81.01360321044922","latitude":"49.10559844970703","altitude":2825},{"name":"Kugluktuk Airport","city":"Kugluktuk","country":"Canada","iata":"YCO","icao":"CYCO","longitude":"-115.143997","latitude":"67.816704","altitude":243},{"name":"Chetwynd Airport","city":"Chetwynd","country":"Canada","iata":"YCQ","icao":"CYCQ","longitude":"-121.62699890136719","latitude":"55.687198638916016","altitude":6562},{"name":"Cross Lake (Charlie Sinclair Memorial) Airport","city":"Cross Lake","country":"Canada","iata":"YCR","icao":"CYCR","longitude":"-97.76080322265625","latitude":"54.610599517822266","altitude":2326},{"name":"Chesterfield Inlet Airport","city":"Chesterfield Inlet","country":"Canada","iata":"YCS","icao":"CYCS","longitude":"-90.73110198970001","latitude":"63.346900939899996","altitude":105},{"name":"Coronation Airport","city":"Coronation","country":"Canada","iata":"YCT","icao":"CYCT","longitude":"-111.444999695","latitude":"52.0750007629","altitude":8514},{"name":"Chilliwack Airport","city":"Chilliwack","country":"Canada","iata":"YCW","icao":"CYCW","longitude":"-121.939002991","latitude":"49.1528015137","altitude":105},{"name":"Clyde River Airport","city":"Clyde River","country":"Canada","iata":"YCY","icao":"CYCY","longitude":"-68.5167007446","latitude":"70.4860992432","altitude":285},{"name":"Fairmont Hot Springs Airport","city":"Fairmont Hot Springs","country":"Canada","iata":"YCZ","icao":"CYCZ","longitude":"-115.873001099","latitude":"50.330299377399996","altitude":8730},{"name":"Dawson City Airport","city":"Dawson City","country":"Canada","iata":"YDA","icao":"CYDA","longitude":"-139.1280059814453","latitude":"64.04309844970703","altitude":3986},{"name":"Burwash Airport","city":"Burwash","country":"Canada","iata":"YDB","icao":"CYDB","longitude":"-139.04100036621094","latitude":"61.37110137939453","altitude":8684},{"name":"Deer Lake Airport","city":"Deer Lake","country":"Canada","iata":"YDF","icao":"CYDF","longitude":"-57.39139938354492","latitude":"49.21080017089844","altitude":236},{"name":"Dease Lake Airport","city":"Dease Lake","country":"Canada","iata":"YDL","icao":"CYDL","longitude":"-130.031997681","latitude":"58.4221992493","altitude":8530},{"name":"Ross River Airport","city":"Ross River","country":"Canada","iata":"XRR","icao":"CYDM","longitude":"-132.42300415","latitude":"61.9706001282","altitude":7592},{"name":"Dauphin Barker Airport","city":"Dauphin","country":"Canada","iata":"YDN","icao":"CYDN","longitude":"-100.052001953125","latitude":"51.100799560546875","altitude":3278},{"name":"Dolbeau St Felicien Airport","city":"Dolbeau-St-Félicien","country":"Canada","iata":"YDO","icao":"CYDO","longitude":"-72.375","latitude":"48.778499603271","altitude":1220},{"name":"Nain Airport","city":"Nain","country":"Canada","iata":"YDP","icao":"CYDP","longitude":"-61.680301666259766","latitude":"56.549198150634766","altitude":72},{"name":"Dawson Creek Airport","city":"Dawson Creek","country":"Canada","iata":"YDQ","icao":"CYDQ","longitude":"-120.18299865722656","latitude":"55.7422981262207","altitude":7047},{"name":"Edmonton International Airport","city":"Edmonton","country":"Canada","iata":"YEG","icao":"CYEG","longitude":"-113.580001831","latitude":"53.309700012200004","altitude":7785},